kpid,image__id,image_name,date_time,deployment,depth,label,code,x,y,latitude,longitude,altitude,pitch,roll,salinity,temperature,yaw
1415241,2742227,PR_20081012_015655_997_LC16,2008-10-12 01:56:55.997940+00:00,r20081011_231958_sisters_16_quadrep,71.08574486,1,NC,0.464380596,0.768219286,-42.94802407,148.006765,2,,,35.18637288,11.94413559,
1416223,2744127,PR_20081012_022836_255_LC16,2008-10-12 02:28:36.255529+00:00,r20081011_231958_sisters_16_quadrep,70.7270777,1,NC,0.448292827,0.520934188,-42.94832674,148.0040533,2.05,,,35.18720502,11.94587238,
1416227,2744127,PR_20081012_022836_255_LC16,2008-10-12 02:28:36.255529+00:00,r20081011_231958_sisters_16_quadrep,70.7270777,1,NC,0.994883401,0.749443936,-42.94832674,148.0040533,2.05,,,35.18720502,11.94587238,
1409664,2690539,PR_20081010_050426_275_LC16,2008-10-10 05:04:26.275880+00:00,r20081010_032919_ChevronRockS_14_transect,54.93746219,1,NC,0.993407458,0.102315845,-43.11883687,148.0434173,1.972,,,35.15216901,11.99173239,
1415066,2741840,PR_20081012_015028_947_LC16,2008-10-12 01:50:28.947752+00:00,r20081011_231958_sisters_16_quadrep,61.81473484,1,NC,0.08103321,0.303173045,-42.949593,148.0068131,2.543,,,35.182,11.9495,
1415514,2742727,PR_20081012_020516_066_LC16,2008-10-12 02:05:16.066924+00:00,r20081011_231958_sisters_16_quadrep,73.87129726,1,NC,0.762127325,0.247154259,-42.94612468,148.0068566,2.02,,,35.19364516,11.93947312,
1410634,2710134,PR_20081010_053735_568_LC16,2008-10-10 05:37:35.568202+00:00,r20081010_032919_ChevronRockS_14_transect,33.77217012,1,NC,0.354865689,0.781041476,-43.1193765,148.045451,1.62,,,35.14551064,11.97762411,
1413069,2737827,PR_20081012_004335_394_LC16,2008-10-12 00:43:35.394992+00:00,r20081011_231958_sisters_16_quadrep,56.41050899,1,NC,0.151726852,0.01681277,-42.95004006,148.0058054,2.298,,,35.17826606,11.94279817,
1407444,2627470,PR_20081010_034734_602_LC16,2008-10-10 03:47:34.602365+00:00,r20081010_032919_ChevronRockS_14_transect,37.49425073,1,NC,0.312604546,0.176370535,-43.11991688,148.0441095,1.83,,,35.14760465,11.98372093,
1414841,2741427,PR_20081012_014335_887_LC16,2008-10-12 01:43:35.887750+00:00,r20081011_231958_sisters_16_quadrep,52.58203112,1,NC,0.173865984,0.213594138,-42.95108482,148.0068644,2.15,,,35.178,11.95645455,
1411297,2734327,PR_20081011_234514_906_LC16,2008-10-11 23:45:14.906752+00:00,r20081011_231958_sisters_16_quadrep,43.64481929,1,NC,0.28215094,0.933599372,-42.95496921,148.0050715,2.05,,,35.17508333,11.97,
1411908,2735527,PR_20081012_000515_075_LC16,2008-10-12 00:05:15.075322+00:00,r20081011_231958_sisters_16_quadrep,60.94946711,1,NC,0.348420742,0.678202277,-42.95023062,148.0048468,2.13,,,35.18058824,11.937,
1409719,2691476,PR_20081010_050555_289_LC16,2008-10-10 05:05:55.289896+00:00,r20081010_032919_ChevronRockS_14_transect,50.73938158,1,NC,0.900029519,0.313554887,-43.11882873,148.0437973,2.633,,,35.15207692,11.97896154,
1407471,2627470,PR_20081010_034734_602_LC16,2008-10-10 03:47:34.602365+00:00,r20081010_032919_ChevronRockS_14_transect,37.49425073,1,NC,0.192413657,0.693117886,-43.11991688,148.0441095,1.83,,,35.14760465,11.98372093,
1416373,2744427,PR_20081012_023336_300_LC16,2008-10-12 02:33:36.300018+00:00,r20081011_231958_sisters_16_quadrep,65.77408477,1,NC,0.436337696,0.115334293,-42.94868498,148.0050197,2.143,,,35.18408333,11.96075,
1408042,2646336,PR_20081010_041054_806_LC16,2008-10-10 04:10:54.806301+00:00,r20081010_032919_ChevronRockS_14_transect,86.38687946,1,NC,0.852897766,0.986523616,-43.12049986,148.0390301,2.09,,,35.16848772,11.98453684,
1409293,2682552,PR_20081010_045235_175_LC16,2008-10-10 04:52:35.175096+00:00,r20081010_032919_ChevronRockS_14_transect,48.7646614,1,NC,0.291400177,0.211173623,-43.12039791,148.0422345,2.003,,,35.15352273,11.98135227,
1414804,2741327,PR_20081012_014155_877_LC16,2008-10-12 01:41:55.877462+00:00,r20081011_231958_sisters_16_quadrep,49.33356364,1,NC,0.059234478,0.619259453,-42.95146833,148.0068768,2.223,,,35.18425424,11.96174576,
1409040,2676399,PR_20081010_044420_102_LC16,2008-10-10 04:44:20.102881+00:00,r20081010_032919_ChevronRockS_14_transect,59.9719504,1,NC,0.862884975,0.833376946,-43.12109286,148.0410895,3.39,,,35.1564,11.9876,
1416164,2744027,PR_20081012_022656_241_LC16,2008-10-12 02:26:56.241960+00:00,r20081011_231958_sisters_16_quadrep,69.87708628,1,NC,0.141985634,0.252714903,-42.94792673,148.0040389,2.138,,,35.18762343,11.94357113,
1417220,2746127,PR_20081012_030156_530_LC16,2008-10-12 03:01:56.530915+00:00,r20081011_231958_sisters_16_quadrep,52.6829163,1,NC,0.539778598,0.808832188,-42.9512402,148.0061145,2.22,,,35.17600782,11.95328013,
1414191,2740127,PR_20081012_012155_707_LC16,2008-10-12 01:21:55.707487+00:00,r20081011_231958_sisters_16_quadrep,43.69556094,1,NC,0.220210568,0.827358367,-42.95601951,148.0070718,2.04,,,35.17625532,11.97923404,
1407768,2637347,PR_20081010_040054_720_LC16,2008-10-10 04:00:54.720675+00:00,r20081010_032919_ChevronRockS_14_transect,61.34214751,1,NC,0.443077831,0.965196912,-43.11996221,148.0411731,2.545,,,35.15658333,11.98283333,
1414170,2740027,PR_20081012_012015_696_LC16,2008-10-12 01:20:15.696652+00:00,r20081011_231958_sisters_16_quadrep,42.32409105,1,NC,0.668798583,0.141044093,-42.95645941,148.007085,2.02,,,35.17970588,11.98205882,
1417333,2746427,PR_20081012_030656_567_LC16,2008-10-12 03:06:56.567369+00:00,r20081011_231958_sisters_16_quadrep,58.21782879,1,NC,0.74095941,0.005888126,-42.95127574,148.0045226,2.13,,,35.18258059,11.94858529,
1407917,2641791,PR_20081010_040554_761_LC16,2008-10-10 04:05:54.761426+00:00,r20081010_032919_ChevronRockS_14_transect,74.17537154,1,NC,0.89387976,0.50507033,-43.11997097,148.0397609,5.845,,,35.16564706,11.983,
1416251,2744227,PR_20081012_023016_272_LC16,2008-10-12 02:30:16.272153+00:00,r20081011_231958_sisters_16_quadrep,70.10384063,1,NC,0.197825445,0.608857778,-42.94868967,148.0040764,2.09,,,35.18866667,11.95358333,
1416650,2745027,PR_20081012_024336_381_LC16,2008-10-12 02:43:36.381537+00:00,r20081011_231958_sisters_16_quadrep,68.70979275,1,NC,0.79404674,0.418318613,-42.94873741,148.0078348,2.16,,,35.19251351,11.96167568,
1418094,2747927,PR_20081012_033156_776_LC16,2008-10-12 03:31:56.776904+00:00,r20081011_231958_sisters_16_quadrep,52.46619983,1,NC,0.663173432,0.19692509,-42.95371721,148.0079444,2.07,,,35.17225352,11.95712676,
1418232,2748227,PR_20081012_033656_813_LC16,2008-10-12 03:36:56.813175+00:00,r20081011_231958_sisters_16_quadrep,48.93954398,1,NC,0.390455105,0.691331371,-42.95483523,148.0081858,2,,,35.169,11.96147826,
1415968,2743627,PR_20081012_022016_187_LC16,2008-10-12 02:20:16.187616+00:00,r20081011_231958_sisters_16_quadrep,74.10144003,1,NC,0.867116009,0.465916525,-42.94635089,148.0039773,2.05,,,35.19038462,11.93738462,
1407638,2632782,PR_20081010_035447_666_LC16,2008-10-10 03:54:47.666389+00:00,r20081010_032919_ChevronRockS_14_transect,35.26665347,1,NC,0.463741021,0.505691482,-43.1199334,148.0427473,2.87,,,35.14422581,11.98109677,
1411698,2735127,PR_20081011_235835_017_LC16,2008-10-11 23:58:35.017528+00:00,r20081011_231958_sisters_16_quadrep,55.83529064,1,NC,0.331398209,0.77770509,-42.9518795,148.0049288,1.695,,,35.17957143,11.95242857,
1411402,2734521,PR_20081011_234828_931_LC16,2008-10-11 23:48:28.931280+00:00,r20081011_231958_sisters_16_quadrep,44.35726502,1,NC,0.521525215,0.680013085,-42.95424566,148.0050458,2.647,,,35.1755,11.966,
1408686,2665700,PR_20081010_043234_998_LC16,2008-10-10 04:32:34.998712+00:00,r20081010_032919_ChevronRockS_14_transect,70.34230014,1,NC,0.352651776,0.717977234,-43.11934007,148.0406448,2.522,,,35.1652,11.9825,
1412119,2735927,PR_20081012_001155_130_LC16,2008-10-12 00:11:55.130958+00:00,r20081011_231958_sisters_16_quadrep,66.81711223,1,NC,0.310685821,0.674669632,-42.94866561,148.0047823,2.23,,,35.18453846,11.93353846,
1412999,2737727,PR_20081012_004155_381_LC16,2008-10-12 00:41:55.381356+00:00,r20081011_231958_sisters_16_quadrep,58.54341479,1,NC,0.646315064,0.393562737,-42.94970898,148.0057867,2.535,,,35.18654545,11.94159091,
1410288,2703481,PR_20081010_052555_463_LC16,2008-10-10 05:25:55.463763+00:00,r20081010_032919_ChevronRockS_14_transect,46.99666727,1,NC,0.689609367,0.642090802,-43.12092214,148.0454135,2.578,,,35.14947852,11.99663281,
1407362,2625097,PR_20081010_034414_569_LC16,2008-10-10 03:44:14.569594+00:00,r20081010_032919_ChevronRockS_14_transect,34.35268013,1,NC,0.468267244,0.526494832,-43.11990145,148.0449886,2.62,,,35.14152632,11.98652632,
1416208,2744127,PR_20081012_022836_255_LC16,2008-10-12 02:28:36.255529+00:00,r20081011_231958_sisters_16_quadrep,70.7270777,1,NC,0.357276395,0.373151904,-42.94832674,148.0040533,2.05,,,35.18720502,11.94587238,
1412868,2737422,PR_20081012_003650_337_LC16,2008-10-12 00:36:50.337484+00:00,r20081011_231958_sisters_16_quadrep,61.05564951,1,NC,0.733923739,0.70958456,-42.94867431,148.0057304,3.237,,,35.17982143,11.93335714,
1417607,2746927,PR_20081012_031516_640_LC16,2008-10-12 03:15:16.640390+00:00,r20081011_231958_sisters_16_quadrep,53.81757189,1,NC,0.17097171,0.240562643,-42.9528201,148.004362,2.22,,,35.17731356,11.95545763,
1417828,2747327,PR_20081012_032156_690_LC16,2008-10-12 03:21:56.690403+00:00,r20081011_231958_sisters_16_quadrep,48.96889921,1,NC,0.105682657,0.092705267,-42.95374211,148.004933,2.042,,,35.171,11.95394118,
1410978,2714865,PR_20081010_054727_653_LC16,2008-10-10 05:47:27.653665+00:00,r20081010_032919_ChevronRockS_14_transect,33.97748526,1,NC,0.759815015,0.151707445,-43.11995993,148.0450542,2.06,,,35.15164762,11.97708571,
1416231,2744227,PR_20081012_023016_272_LC16,2008-10-12 02:30:16.272153+00:00,r20081011_231958_sisters_16_quadrep,70.10384063,1,NC,0.657581423,0.855488682,-42.94868967,148.0040764,2.09,,,35.18866667,11.95358333,
1415228,2742127,PR_20081012_015515_986_LC16,2008-10-12 01:55:15.986730+00:00,r20081011_231958_sisters_16_quadrep,69.98824216,1,NC,0.185870314,0.826246238,-42.94844456,148.006776,2.01,,,35.18625,11.9455,
1411097,2733927,PR_20081011_233834_846_LC16,2008-10-11 23:38:34.846842+00:00,r20081011_231958_sisters_16_quadrep,40.82680284,1,NC,0.152710814,0.074643465,-42.95636172,148.005119,2.145,,,35.17361111,11.982,
1416038,2743827,PR_20081012_022336_213_LC16,2008-10-12 02:23:36.213803+00:00,r20081011_231958_sisters_16_quadrep,73.0893136,1,NC,0.721834104,0.692071176,-42.94715319,148.0040038,2.06,,,35.18846025,11.93896862,
1412663,2737027,PR_20081012_003015_282_LC16,2008-10-12 00:30:15.282850+00:00,r20081011_231958_sisters_16_quadrep,72.37541797,1,NC,0.283823674,0.620175324,-42.94729577,148.0056809,2.02,,,35.19084906,11.93690566,
1413681,2739127,PR_20081012_010515_573_LC16,2008-10-12 01:05:15.573193+00:00,r20081011_231958_sisters_16_quadrep,44.42151131,1,NC,0.190593329,0.551092503,-42.95450659,148.0060197,2.428,,,35.17878716,11.97370946,
1412069,2735827,PR_20081012_001015_116_LC16,2008-10-12 00:10:15.116658+00:00,r20081011_231958_sisters_16_quadrep,64.47402765,1,NC,0.967135688,0.907693314,-42.94908015,148.0047981,2.078,,,35.18271429,11.935,
1418161,2748027,PR_20081012_033336_785_LC16,2008-10-12 03:33:36.785896+00:00,r20081011_231958_sisters_16_quadrep,51.96721558,1,NC,0.830947109,0.708276088,-42.95395999,148.0081353,2.02,,,35.172,11.95629348,
1412325,2736327,PR_20081012_001835_185_LC16,2008-10-12 00:18:35.185431+00:00,r20081011_231958_sisters_16_quadrep,72.78458418,1,NC,0.377791991,0.937589952,-42.94707138,148.0047462,2.02,,,35.186,11.93493939,
1409418,2684940,PR_20081010_045555_200_LC16,2008-10-10 04:55:55.200992+00:00,r20081010_032919_ChevronRockS_14_transect,59.51598559,1,NC,0.476876906,0.084063849,-43.11964581,148.042238,1.773,,,35.16046154,11.99007692,
1416293,2744327,PR_20081012_023156_281_LC16,2008-10-12 02:31:56.281859+00:00,r20081011_231958_sisters_16_quadrep,67.78359951,1,NC,0.491537932,0.860983907,-42.94868369,148.0045506,2.177,,,35.183,11.9555,
1410199,2701430,PR_20081010_052235_435_LC16,2008-10-10 05:22:35.435376+00:00,r20081010_032919_ChevronRockS_14_transect,43.30004712,1,NC,0.979238414,0.806685856,-43.12108168,148.0448121,2.08,,,35.14359091,11.99057576,
1408190,2650670,PR_20081010_041554_851_LC16,2008-10-10 04:15:54.851762+00:00,r20081010_032919_ChevronRockS_14_transect,86.52241414,1,NC,0.260602184,0.030354573,-43.12065148,148.039043,2.12,,,35.1785,11.9835,
1413101,2737913,PR_20081012_004501_407_LC16,2008-10-12 00:45:01.407265+00:00,r20081011_231958_sisters_16_quadrep,54.84503264,1,NC,0.752324723,0.467190056,-42.95032495,148.0058178,2.803,,,35.177,11.94269697,
1407756,2637347,PR_20081010_040054_720_LC16,2008-10-10 04:00:54.720675+00:00,r20081010_032919_ChevronRockS_14_transect,61.34214751,1,NC,0.884974909,0.009420385,-43.11996221,148.0411731,2.545,,,35.15658333,11.98283333,
1407394,2626278,PR_20081010_034554_587_LC16,2008-10-10 03:45:54.587891+00:00,r20081010_032919_ChevronRockS_14_transect,36.64110931,1,NC,0.227147496,0.01681277,-43.11991347,148.044598,2.708,,,35.1448961,11.98420779,
1418717,2749127,PR_20081012_035156_939_LC16,2008-10-12 03:51:56.939264+00:00,r20081011_231958_sisters_16_quadrep,41.01700154,1,NC,0.401574416,0.070199542,-42.95626246,148.0051314,2.248,,,35.168,12.059,
1408606,2662787,PR_20081010_042914_967_LC16,2008-10-10 04:29:14.967358+00:00,r20081010_032919_ChevronRockS_14_transect,75.704302,1,NC,0.563121126,0.070522046,-43.11885013,148.0405303,2.06,,,35.16766667,11.982,
1412179,2736127,PR_20081012_001515_154_LC16,2008-10-12 00:15:15.154433+00:00,r20081011_231958_sisters_16_quadrep,66.8832358,1,NC,0.906917249,0.649679445,-42.94789201,148.0047583,2.807,,,35.18627778,11.93105556,
1417869,2747427,PR_20081012_032336_706_LC16,2008-10-12 03:23:36.706289+00:00,r20081011_231958_sisters_16_quadrep,45.94018214,1,NC,0.969151292,0.745829244,-42.95373688,148.0054456,2.2,,,35.16913846,11.95478462,
1409480,2687314,PR_20081010_045915_232_LC16,2008-10-10 04:59:15.232969+00:00,r20081010_032919_ChevronRockS_14_transect,61.02930881,1,NC,0.797402342,0.169305247,-43.11890809,148.0422294,2.415,,,35.16114516,11.97920968,
1409557,2688490,PR_20081010_050055_244_LC16,2008-10-10 05:00:55.244661+00:00,r20081010_032919_ChevronRockS_14_transect,60.8859413,1,NC,0.65945095,0.265864189,-43.11884235,148.0425492,2.027,,,35.16055556,11.99322222,
1408359,2655170,PR_20081010_042054_896_LC16,2008-10-10 04:20:54.896353+00:00,r20081010_032919_ChevronRockS_14_transect,85.56151673,1,NC,0.676178294,0.41600157,-43.11947512,148.0390449,2.02,,,35.16876923,11.98953846,
1407682,2636046,PR_20081010_035914_705_LC16,2008-10-10 03:59:14.705616+00:00,r20081010_032919_ChevronRockS_14_transect,58.26026165,1,NC,0.717898258,0.738846003,-43.11995842,148.0416421,2.613,,,35.1551,11.983,
1407751,2637347,PR_20081010_040054_720_LC16,2008-10-10 04:00:54.720675+00:00,r20081010_032919_ChevronRockS_14_transect,61.34214751,1,NC,0.750319787,0.353591522,-43.11996221,148.0411731,2.545,,,35.15658333,11.98283333,
1411063,2733827,PR_20081011_233654_836_LC16,2008-10-11 23:36:54.836561+00:00,r20081011_231958_sisters_16_quadrep,40.17112403,1,NC,0.587031388,0.197239304,-42.95670736,148.0051222,2.165,,,35.17386486,11.98375676,
1413596,2738912,PR_20081012_010140_542_LC16,2008-10-12 01:01:40.542889+00:00,r20081011_231958_sisters_16_quadrep,41.45947715,1,NC,0.971611316,0.924304874,-42.9537213,148.0059828,1.905,,,35.17439437,11.97311268,
1411287,2734327,PR_20081011_234514_906_LC16,2008-10-11 23:45:14.906752+00:00,r20081011_231958_sisters_16_quadrep,43.64481929,1,NC,0.849798288,0.741397357,-42.95496921,148.0050715,2.05,,,35.17508333,11.97,
1411826,2735327,PR_20081012_000155_047_LC16,2008-10-12 00:01:55.047177+00:00,r20081011_231958_sisters_16_quadrep,58.11755042,1,NC,0.273442881,0.381983514,-42.95104096,148.0048918,2.15,,,35.18067857,11.94132143,
1418080,2747927,PR_20081012_033156_776_LC16,2008-10-12 03:31:56.776904+00:00,r20081011_231958_sisters_16_quadrep,52.46619983,1,NC,0.358179582,0.980700033,-42.95371721,148.0079444,2.07,,,35.17225352,11.95712676,
1408067,2646336,PR_20081010_041054_806_LC16,2008-10-10 04:10:54.806301+00:00,r20081010_032919_ChevronRockS_14_transect,86.38687946,1,NC,0.437420053,0.981748005,-43.12049986,148.0390301,2.09,,,35.16848772,11.98453684,
1412378,2736427,PR_20081012_002015_198_LC16,2008-10-12 00:20:15.198381+00:00,r20081011_231958_sisters_16_quadrep,73.57560341,1,NC,0.44770245,0.772471543,-42.94663425,148.0047344,2.04,,,35.187,11.93697143,
1408737,2667197,PR_20081010_043415_011_LC16,2008-10-10 04:34:15.011089+00:00,r20081010_032919_ChevronRockS_14_transect,66.58693979,1,NC,0.949079996,0.46343059,-43.11957728,148.0406535,2.743,,,35.16581818,11.981,
1409261,2681257,PR_20081010_045055_160_LC16,2008-10-10 04:50:55.160970+00:00,r20081010_032919_ChevronRockS_14_transect,56.18674523,1,NC,0.207074683,0.394020673,-43.12066983,148.0422351,2.467,,,35.15485,11.97938333,
1415673,2743027,PR_20081012_021016_104_LC16,2008-10-12 02:10:16.104789+00:00,r20081011_231958_sisters_16_quadrep,73.55374964,1,NC,0.67780183,0.976056522,-42.94613169,148.0069584,2.16,,,35.19176953,11.94027734,
1414372,2740427,PR_20081012_012655_753_LC16,2008-10-12 01:26:55.753177+00:00,r20081011_231958_sisters_16_quadrep,47.2827051,1,NC,0.842762964,0.14725893,-42.95470568,148.00701,2.07,,,35.17853763,11.97446237,
1409126,2677862,PR_20081010_044611_117_LC16,2008-10-10 04:46:11.117359+00:00,r20081010_032919_ChevronRockS_14_transect,49.81118026,1,NC,0.410311916,0.508766191,-43.12109572,148.0415224,3.195,,,35.15181818,11.98027273,
1416995,2745727,PR_20081012_025516_476_LC16,2008-10-12 02:55:16.476844+00:00,r20081011_231958_sisters_16_quadrep,61.56042001,1,NC,0.185387454,0.252142623,-42.95121115,148.0079043,2.06,,,35.187,11.97533333,
1411799,2735327,PR_20081012_000155_047_LC16,2008-10-12 00:01:55.047177+00:00,r20081011_231958_sisters_16_quadrep,58.11755042,1,NC,0.371396241,0.753172838,-42.95104096,148.0048918,2.15,,,35.18067857,11.94132143,
1418587,2748927,PR_20081012_034836_910_LC16,2008-10-12 03:48:36.910802+00:00,r20081011_231958_sisters_16_quadrep,42.24922696,1,NC,0.020516605,0.450507033,-42.95624229,148.0061234,2.04,,,35.16246154,12.07223077,
1411939,2735627,PR_20081012_000655_088_LC16,2008-10-12 00:06:55.088987+00:00,r20081011_231958_sisters_16_quadrep,60.11264149,1,NC,0.973531438,0.655959702,-42.94985179,148.004829,1.895,,,35.183,11.93975,
1417127,2745927,PR_20081012_025836_502_LC16,2008-10-12 02:58:36.502420+00:00,r20081011_231958_sisters_16_quadrep,52.58963569,1,NC,0.790897909,0.592280013,-42.95121798,148.0070554,3.475,,,35.18484127,11.968,
1417088,2745927,PR_20081012_025836_502_LC16,2008-10-12 02:58:36.502420+00:00,r20081011_231958_sisters_16_quadrep,52.58963569,1,NC,0.514341943,0.281779522,-42.95121798,148.0070554,3.475,,,35.18484127,11.968,
1412573,2736827,PR_20081012_002655_253_LC16,2008-10-12 00:26:55.253637+00:00,r20081011_231958_sisters_16_quadrep,73.69790478,1,NC,0.639328938,0.874852806,-42.94647803,148.0056492,2.02,,,35.19022013,11.94067925,
1416803,2745327,PR_20081012_024836_422_LC16,2008-10-12 02:48:36.422386+00:00,r20081011_231958_sisters_16_quadrep,64.90166461,1,NC,0.573234932,0.76473667,-42.94981963,148.0078788,2.058,,,35.1824902,11.96870588,
1411371,2734427,PR_20081011_234654_920_LC16,2008-10-11 23:46:54.921000+00:00,r20081011_231958_sisters_16_quadrep,44.24990782,1,NC,0.446521696,0.863796938,-42.95458931,148.0050584,2.147,,,35.1745625,11.9683125,
1417052,2745827,PR_20081012_025656_487_LC16,2008-10-12 02:56:56.487943+00:00,r20081011_231958_sisters_16_quadrep,59.55321983,1,NC,0.753062731,0.215439974,-42.95121198,148.0074591,1.94,,,35.18546809,11.9706383,
1408704,2665700,PR_20081010_043234_998_LC16,2008-10-10 04:32:34.998712+00:00,r20081010_032919_ChevronRockS_14_transect,70.34230014,1,NC,0.18700187,0.386301191,-43.11934007,148.0406448,2.522,,,35.1652,11.9825,
1407988,2644815,PR_20081010_040914_790_LC16,2008-10-10 04:09:14.790910+00:00,r20081010_032919_ChevronRockS_14_transect,86.0669556,1,NC,0.238069468,0.986392778,-43.12013229,148.0390072,2.03,,,35.16813684,11.98558947,
1416347,2744427,PR_20081012_023336_300_LC16,2008-10-12 02:33:36.300018+00:00,r20081011_231958_sisters_16_quadrep,65.77408477,1,NC,0.671160091,0.288303022,-42.94868498,148.0050197,2.143,,,35.18408333,11.96075,
1417291,2746327,PR_20081012_030516_558_LC16,2008-10-12 03:05:16.558481+00:00,r20081011_231958_sisters_16_quadrep,53.65126364,1,NC,0.560787208,0.82224403,-42.95126436,148.0050864,3.05,,,35.18038967,11.95015023,
1410173,2700488,PR_20081010_052055_417_LC16,2008-10-10 05:20:55.417970+00:00,r20081010_032919_ChevronRockS_14_transect,43.07270973,1,NC,0.717996655,0.711239042,-43.12107888,148.0443316,2.15,,,35.15205,11.990375,
1414903,2741527,PR_20081012_014515_902_LC16,2008-10-12 01:45:15.902716+00:00,r20081011_231958_sisters_16_quadrep,48.55026944,1,NC,0.305766014,0.313620306,-42.9507636,148.006852,2.1,,,35.18315068,11.95957534,
1409883,2695510,PR_20081010_051240_346_LC16,2008-10-10 05:12:40.346858+00:00,r20081010_032919_ChevronRockS_14_transect,33.8544247,1,NC,0.397176031,0.87446029,-43.11984522,148.043815,3.333,,,35.14412,11.97688,
1417990,2747727,PR_20081012_032836_747_LC16,2008-10-12 03:28:36.747143+00:00,r20081011_231958_sisters_16_quadrep,51.23915321,1,NC,0.691316113,0.958259732,-42.9537265,148.0069522,2.05,,,35.17366197,11.95783099,
1412241,2736227,PR_20081012_001655_171_LC16,2008-10-12 00:16:55.171407+00:00,r20081011_231958_sisters_16_quadrep,71.43903022,1,NC,0.948538817,0.215883815,-42.94750007,148.0047544,2.1,,,35.18646667,11.93246667,
1407935,2643315,PR_20081010_040734_779_LC16,2008-10-10 04:07:34.779603+00:00,r20081010_032919_ChevronRockS_14_transect,83.43137569,1,NC,0.702843649,0.092175847,-43.11997952,148.039216,3.185,,,35.169,11.98418182,
1408228,2650670,PR_20081010_041554_851_LC16,2008-10-10 04:15:54.851762+00:00,r20081010_032919_ChevronRockS_14_transect,86.52241414,1,NC,0.335383253,0.033690959,-43.12065148,148.039043,2.12,,,35.1785,11.9835,
1416253,2744227,PR_20081012_023016_272_LC16,2008-10-12 02:30:16.272153+00:00,r20081011_231958_sisters_16_quadrep,70.10384063,1,NC,0.558398111,0.665445506,-42.94868967,148.0040764,2.09,,,35.18866667,11.95358333,
1413478,2738627,PR_20081012_005655_506_LC16,2008-10-12 00:56:55.506040+00:00,r20081011_231958_sisters_16_quadrep,47.7483917,1,NC,0.40790121,0.29942431,-42.95280392,148.0059421,2.478,,,35.1752,11.9642,
1412481,2736727,PR_20081012_002515_242_LC16,2008-10-12 00:25:15.242447+00:00,r20081011_231958_sisters_16_quadrep,74.13546999,1,NC,0.782446128,0.221836975,-42.9461493,148.0056267,2.04,,,35.18604605,11.94195395,
1417711,2747127,PR_20081012_031836_667_LC16,2008-10-12 03:18:36.667723+00:00,r20081011_231958_sisters_16_quadrep,51.67908847,1,NC,0.414120541,0.512201505,-42.95348057,148.0044029,2.138,,,35.1722,11.952,
1411953,2735627,PR_20081012_000655_088_LC16,2008-10-12 00:06:55.088987+00:00,r20081011_231958_sisters_16_quadrep,60.11264149,1,NC,0.753173276,0.590998299,-42.94985179,148.004829,1.895,,,35.183,11.93975,
1410212,2701430,PR_20081010_052235_435_LC16,2008-10-10 05:22:35.435376+00:00,r20081010_032919_ChevronRockS_14_transect,43.30004712,1,NC,0.176571878,0.981878843,-43.12108168,148.0448121,2.08,,,35.14359091,11.99057576,
1411027,2715742,PR_20081010_054915_667_LC16,2008-10-10 05:49:15.667842+00:00,r20081010_032919_ChevronRockS_14_transect,36.31485763,1,NC,0.925612516,0.217323041,-43.12007272,148.0446071,1.855,,,35.14599048,11.97554286,
1410784,2712472,PR_20081010_054228_610_LC16,2008-10-10 05:42:28.610137+00:00,r20081010_032919_ChevronRockS_14_transect,37.55297472,1,NC,0.236249139,0.636857255,-43.11923194,148.045481,2.45,,,35.14586747,11.97836145,
1417345,2746427,PR_20081012_030656_567_LC16,2008-10-12 03:06:56.567369+00:00,r20081011_231958_sisters_16_quadrep,58.21782879,1,NC,0.565116851,0.813280994,-42.95127574,148.0045226,2.13,,,35.18258059,11.94858529,
1416124,2743927,PR_20081012_022516_230_LC16,2008-10-12 02:25:16.230495+00:00,r20081011_231958_sisters_16_quadrep,72.94148764,1,NC,0.105677457,0.552662567,-42.94755263,148.0040223,1.98,,,35.18804184,11.94126987,
1408776,2667197,PR_20081010_043415_011_LC16,2008-10-10 04:34:15.011089+00:00,r20081010_032919_ChevronRockS_14_transect,66.58693979,1,NC,0.600364066,0.345152427,-43.11957728,148.0406535,2.743,,,35.16581818,11.981,
1416990,2745727,PR_20081012_025516_476_LC16,2008-10-12 02:55:16.476844+00:00,r20081011_231958_sisters_16_quadrep,61.56042001,1,NC,0.222681427,0.341969251,-42.95121115,148.0079043,2.06,,,35.187,11.97533333,
1407752,2637347,PR_20081010_040054_720_LC16,2008-10-10 04:00:54.720675+00:00,r20081010_032919_ChevronRockS_14_transect,61.34214751,1,NC,0.079700876,0.163613764,-43.11996221,148.0411731,2.545,,,35.15658333,11.98283333,
1412488,2736727,PR_20081012_002515_242_LC16,2008-10-12 00:25:15.242447+00:00,r20081011_231958_sisters_16_quadrep,74.13546999,1,NC,0.518695267,0.670155698,-42.9461493,148.0056267,2.04,,,35.18604605,11.94195395,
1409177,2678832,PR_20081010_044732_131_LC16,2008-10-10 04:47:32.131359+00:00,r20081010_032919_ChevronRockS_14_transect,50.46196306,1,NC,0.904309751,0.320293079,-43.12108892,148.0419192,1.703,,,35.15201538,11.98412308,
1413019,2737727,PR_20081012_004155_381_LC16,2008-10-12 00:41:55.381356+00:00,r20081011_231958_sisters_16_quadrep,58.54341479,1,NC,0.94465217,0.4861311,-42.94970898,148.0057867,2.535,,,35.18654545,11.94159091,
1411467,2734627,PR_20081011_235014_949_LC16,2008-10-11 23:50:14.949020+00:00,r20081011_231958_sisters_16_quadrep,48.36003374,1,NC,0.576847388,0.956626979,-42.95383988,148.0050317,2.192,,,35.17889655,11.966,
1407310,2623919,PR_20081010_034234_558_LC16,2008-10-10 03:42:34.558423+00:00,r20081010_032919_ChevronRockS_14_transect,37.84214756,1,NC,0.621962019,0.398665446,-43.11991006,148.0453547,1.84,,,35.14250327,11.98598693,
1413758,2739227,PR_20081012_010655_583_LC16,2008-10-12 01:06:55.583914+00:00,r20081011_231958_sisters_16_quadrep,44.42801341,1,NC,0.008855653,0.101203716,-42.95485773,148.006035,2,,,35.17777365,11.97708784,
1410632,2710134,PR_20081010_053735_568_LC16,2008-10-10 05:37:35.568202+00:00,r20081010_032919_ChevronRockS_14_transect,33.77217012,1,NC,0.081176818,0.712874526,-43.1193765,148.045451,1.62,,,35.14551064,11.97762411,
1409837,2694453,PR_20081010_051055_335_LC16,2008-10-10 05:10:55.335366+00:00,r20081010_032919_ChevronRockS_14_transect,39.46168085,1,NC,0.907753616,0.06816695,-43.11959521,148.0437978,2.485,,,35.14617857,11.97882143,
1418042,2747827,PR_20081012_033016_763_LC16,2008-10-12 03:30:16.763474+00:00,r20081011_231958_sisters_16_quadrep,51.75617756,1,NC,0.987601476,0.484658162,-42.95372417,148.0074347,2.243,,,35.17295775,11.95747887,
1415099,2741927,PR_20081012_015155_959_LC16,2008-10-12 01:51:55.959571+00:00,r20081011_231958_sisters_16_quadrep,63.64708229,1,NC,0.068188527,0.421300536,-42.9492625,148.0068027,2.058,,,35.18390588,11.94590588,
1408743,2667197,PR_20081010_043415_011_LC16,2008-10-10 04:34:15.011089+00:00,r20081010_032919_ChevronRockS_14_transect,66.58693979,1,NC,0.650841287,0.624296742,-43.11957728,148.0406535,2.743,,,35.16581818,11.981,
1411079,2733927,PR_20081011_233834_846_LC16,2008-10-11 23:38:34.846842+00:00,r20081011_231958_sisters_16_quadrep,40.82680284,1,NC,0.029666437,0.549914955,-42.95636172,148.005119,2.145,,,35.17361111,11.982,
1412905,2737527,PR_20081012_003835_353_LC16,2008-10-12 00:38:35.353841+00:00,r20081011_231958_sisters_16_quadrep,53.20907712,1,NC,0.811522188,0.942300144,-42.94895128,148.0057449,2.167,,,35.176,11.934,
1408320,2653667,PR_20081010_041914_881_LC16,2008-10-10 04:19:14.881938+00:00,r20081010_032919_ChevronRockS_14_transect,86.84316717,1,NC,0.310095444,0.012364255,-43.11985478,148.0390389,2.04,,,35.17734783,11.9886087,
1409055,2676399,PR_20081010_044420_102_LC16,2008-10-10 04:44:20.102881+00:00,r20081010_032919_ChevronRockS_14_transect,59.9719504,1,NC,0.120289285,0.495420646,-43.12109286,148.0410895,3.39,,,35.1564,11.9876,
1410002,2697434,PR_20081010_051555_376_LC16,2008-10-10 05:15:55.376414+00:00,r20081010_032919_ChevronRockS_14_transect,36.95765718,1,NC,0.949867165,0.156613895,-43.12039895,148.0438429,2.04,,,35.1525641,11.97781197,
1414730,2741227,PR_20081012_014015_860_LC16,2008-10-12 01:40:15.860021+00:00,r20081011_231958_sisters_16_quadrep,53.17929308,1,NC,0.163977172,0.637249771,-42.95180024,148.0068912,1.847,,,35.181,11.96833333,
1410007,2697434,PR_20081010_051555_376_LC16,2008-10-10 05:15:55.376414+00:00,r20081010_032919_ChevronRockS_14_transect,36.95765718,1,NC,0.723260848,0.495224388,-43.12039895,148.0438429,2.04,,,35.1525641,11.97781197,
1407702,2636046,PR_20081010_035914_705_LC16,2008-10-10 03:59:14.705616+00:00,r20081010_032919_ChevronRockS_14_transect,58.26026165,1,NC,0.856686018,0.251144838,-43.11995842,148.0416421,2.613,,,35.1551,11.983,
1408129,2649206,PR_20081010_041414_833_LC16,2008-10-10 04:14:14.833978+00:00,r20081010_032919_ChevronRockS_14_transect,87.47377239,1,NC,0.846502017,0.797069214,-43.12104672,148.0390516,1.772,,,35.1705,11.993,
1413426,2738527,PR_20081012_005515_492_LC16,2008-10-12 00:55:15.492186+00:00,r20081011_231958_sisters_16_quadrep,48.55906966,1,NC,0.040736003,0.129661128,-42.95246889,148.0059252,2.077,,,35.17785714,11.95942857,
1412505,2736727,PR_20081012_002515_242_LC16,2008-10-12 00:25:15.242447+00:00,r20081011_231958_sisters_16_quadrep,74.13546999,1,NC,0.987257699,0.173622923,-42.9461493,148.0056267,2.04,,,35.18604605,11.94195395,
1415801,2743327,PR_20081012_021516_145_LC16,2008-10-12 02:15:16.145831+00:00,r20081011_231958_sisters_16_quadrep,74.12782342,1,NC,0.266358359,0.295957085,-42.94616556,148.0052885,1.97,,,35.18883984,11.93617578,
1415485,2742727,PR_20081012_020516_066_LC16,2008-10-12 02:05:16.066924+00:00,r20081011_231958_sisters_16_quadrep,73.87129726,1,NC,0.749335826,0.946748659,-42.94612468,148.0068566,2.02,,,35.19364516,11.93947312,
1418382,2748527,PR_20081012_034156_856_LC16,2008-10-12 03:41:56.856021+00:00,r20081011_231958_sisters_16_quadrep,44.47644101,1,NC,0.375891759,0.544520772,-42.9561031,148.0082698,2.04,,,35.163,12.0005,
1414782,2741327,PR_20081012_014155_877_LC16,2008-10-12 01:41:55.877462+00:00,r20081011_231958_sisters_16_quadrep,49.33356364,1,NC,0.618911739,0.023354704,-42.95146833,148.0068768,2.223,,,35.18425424,11.96174576,
1417618,2746927,PR_20081012_031516_640_LC16,2008-10-12 03:15:16.640390+00:00,r20081011_231958_sisters_16_quadrep,53.81757189,1,NC,0.278277983,0.19856068,-42.9528201,148.004362,2.22,,,35.17731356,11.95545763,
1418481,2748727,PR_20081012_034516_886_LC16,2008-10-12 03:45:16.886048+00:00,r20081011_231958_sisters_16_quadrep,43.47497118,1,NC,0.483936039,0.250507033,-42.95620842,148.0073426,2.03,,,35.163,12.0715,
1409269,2681257,PR_20081010_045055_160_LC16,2008-10-10 04:50:55.160970+00:00,r20081010_032919_ChevronRockS_14_transect,56.18674523,1,NC,0.297156351,0.551157922,-43.12066983,148.0422351,2.467,,,35.15485,11.97938333,
1409279,2682552,PR_20081010_045235_175_LC16,2008-10-10 04:52:35.175096+00:00,r20081010_032919_ChevronRockS_14_transect,48.7646614,1,NC,0.78520122,0.274237865,-43.12039791,148.0422345,2.003,,,35.15352273,11.98135227,
1416597,2744927,PR_20081012_024156_365_LC16,2008-10-12 02:41:56.365523+00:00,r20081011_231958_sisters_16_quadrep,66.23248874,1,NC,0.1999508,0.45063788,-42.94873417,148.0073536,2.9,,,35.18837037,11.96059259,
1414579,2740927,PR_20081012_013515_820_LC16,2008-10-12 01:35:15.820697+00:00,r20081011_231958_sisters_16_quadrep,51.6045449,1,NC,0.879513923,0.688669371,-42.95288332,148.0069416,2.018,,,35.17927273,11.98027273,
1412921,2737527,PR_20081012_003835_353_LC16,2008-10-12 00:38:35.353841+00:00,r20081011_231958_sisters_16_quadrep,53.20907712,1,NC,0.687297058,0.80531205,-42.94895128,148.0057449,2.167,,,35.176,11.934,
1414273,2740227,PR_20081012_012335_722_LC16,2008-10-12 01:23:35.722411+00:00,r20081011_231958_sisters_16_quadrep,44.83860016,1,NC,0.108530946,0.177744341,-42.95558692,148.0070531,2.01,,,35.17723485,11.9765303,
1417075,2745827,PR_20081012_025656_487_LC16,2008-10-12 02:56:56.487943+00:00,r20081011_231958_sisters_16_quadrep,59.55321983,1,NC,0.364132841,0.509780831,-42.95121198,148.0074591,1.94,,,35.18546809,11.9706383,
1413484,2738727,PR_20081012_005835_516_LC16,2008-10-12 00:58:35.516044+00:00,r20081011_231958_sisters_16_quadrep,43.65811178,1,NC,0.42448096,0.803807405,-42.95310979,148.0059573,2.665,,,35.17427586,11.96327586,
1414948,2741618,PR_20081012_014646_915_LC16,2008-10-12 01:46:46.915073+00:00,r20081011_231958_sisters_16_quadrep,55.55443494,1,NC,0.016728167,0.381877658,-42.95039672,148.0068437,3.118,,,35.18142857,11.95078571,
1412019,2735727,PR_20081012_000835_099_LC16,2008-10-12 00:08:35.099551+00:00,r20081011_231958_sisters_16_quadrep,61.26755942,1,NC,0.127668995,0.212743687,-42.94947277,148.0048098,1.98,,,35.18163,11.93684,
1413929,2739627,PR_20081012_011335_643_LC16,2008-10-12 01:13:35.643027+00:00,r20081011_231958_sisters_16_quadrep,41.73872454,1,NC,0.225474761,0.298115923,-42.95651796,148.0061432,1.97,,,35.17516201,11.98816201,
1418405,2748527,PR_20081012_034156_856_LC16,2008-10-12 03:41:56.856021+00:00,r20081011_231958_sisters_16_quadrep,44.47644101,1,NC,0.788191882,0.39856068,-42.9561031,148.0082698,2.04,,,35.163,12.0005,
1411704,2735127,PR_20081011_235835_017_LC16,2008-10-11 23:58:35.017528+00:00,r20081011_231958_sisters_16_quadrep,55.83529064,1,NC,0.365689265,0.60866152,-42.9518795,148.0049288,1.695,,,35.17957143,11.95242857,
1412122,2735927,PR_20081012_001155_130_LC16,2008-10-12 00:11:55.130958+00:00,r20081011_231958_sisters_16_quadrep,66.81711223,1,NC,0.867509594,0.264752061,-42.94866561,148.0047823,2.23,,,35.18453846,11.93353846,
1412729,2737227,PR_20081012_003335_308_LC16,2008-10-12 00:33:35.308228+00:00,r20081011_231958_sisters_16_quadrep,64.08066448,1,NC,0.878431565,0.440272144,-42.94798367,148.0057048,1.71,,,35.1814,11.932,
1415406,2742527,PR_20081012_020156_036_LC16,2008-10-12 02:01:56.036919+00:00,r20081011_231958_sisters_16_quadrep,72.81245814,1,NC,0.044573453,0.638623577,-42.9467851,148.0067426,2.04,,,35.18750282,11.93848588,
1412294,2736327,PR_20081012_001835_185_LC16,2008-10-12 00:18:35.185431+00:00,r20081011_231958_sisters_16_quadrep,72.78458418,1,NC,0.250664174,0.604867199,-42.94707138,148.0047462,2.02,,,35.186,11.93493939,
1409369,2683766,PR_20081010_045415_187_LC16,2008-10-10 04:54:15.187440+00:00,r20081010_032919_ChevronRockS_14_transect,54.74215769,1,NC,0.128013382,0.472262201,-43.12002859,148.0422327,3.185,,,35.15468142,11.98895575,
1414996,2741727,PR_20081012_014835_932_LC16,2008-10-12 01:48:35.932303+00:00,r20081011_231958_sisters_16_quadrep,57.2923144,1,NC,0.717406278,0.673753762,-42.95001245,148.0068338,2.665,,,35.18480952,11.94940136,
1410780,2712472,PR_20081010_054228_610_LC16,2008-10-10 05:42:28.610137+00:00,r20081010_032919_ChevronRockS_14_transect,37.55297472,1,NC,0.426399685,0.38047887,-43.11923194,148.045481,2.45,,,35.14586747,11.97836145,
1413438,2738627,PR_20081012_005655_506_LC16,2008-10-12 00:56:55.506040+00:00,r20081011_231958_sisters_16_quadrep,47.7483917,1,NC,0.086687002,0.269527672,-42.95280392,148.0059421,2.478,,,35.1752,11.9642,
1410616,2709298,PR_20081010_053551_549_LC16,2008-10-10 05:35:51.549628+00:00,r20081010_032919_ChevronRockS_14_transect,31.38985055,1,NC,0.914149365,0.568494047,-43.1196695,148.0454404,1.36,,,35.144,11.97671429,
1415591,2742927,PR_20081012_020836_095_LC16,2008-10-12 02:08:36.095968+00:00,r20081011_231958_sisters_16_quadrep,73.6060481,1,NC,0.38674604,0.707313882,-42.94611994,148.0075016,2.1,,,35.19274609,11.94164453,
1417267,2746227,PR_20081012_030336_544_LC16,2008-10-12 03:03:36.544881+00:00,r20081011_231958_sisters_16_quadrep,54.04708213,1,NC,0.398868389,0.101929997,-42.95125698,148.0055898,2.072,,,35.17819875,11.95171518,
1411743,2735227,PR_20081012_000015_030_LC16,2008-10-12 00:00:15.030547+00:00,r20081011_231958_sisters_16_quadrep,56.8312394,1,NC,0.586932992,0.791116054,-42.95146932,148.0049109,1.945,,,35.181,11.94419048,
1418248,2748227,PR_20081012_033656_813_LC16,2008-10-12 03:36:56.813175+00:00,r20081011_231958_sisters_16_quadrep,48.93954398,1,NC,0.789274293,0.288321884,-42.95483523,148.0081858,2,,,35.169,11.96147826,
1413250,2738227,PR_20081012_005015_448_LC16,2008-10-12 00:50:15.448293+00:00,r20081011_231958_sisters_16_quadrep,52.65533249,1,NC,0.56351471,0.789153474,-42.95142841,148.0058691,2.163,,,35.17774074,11.948,
1407506,2628593,PR_20081010_034904_613_LC16,2008-10-10 03:49:04.613379+00:00,r20081010_032919_ChevronRockS_14_transect,34.79264046,1,NC,0.42118469,0.839657203,-43.1199233,148.0437768,2.323,,,35.14132353,11.98594118,
1410626,2709298,PR_20081010_053551_549_LC16,2008-10-10 05:35:51.549628+00:00,r20081010_032919_ChevronRockS_14_transect,31.38985055,1,NC,0.759126242,0.284639539,-43.1196695,148.0454404,1.36,,,35.144,11.97671429,
1410153,2700488,PR_20081010_052055_417_LC16,2008-10-10 05:20:55.417970+00:00,r20081010_032919_ChevronRockS_14_transect,43.07270973,1,NC,0.96531536,0.625081774,-43.12107888,148.0443316,2.15,,,35.15205,11.990375,
1407889,2641791,PR_20081010_040554_761_LC16,2008-10-10 04:05:54.761426+00:00,r20081010_032919_ChevronRockS_14_transect,74.17537154,1,NC,0.463495031,0.998953222,-43.11997097,148.0397609,5.845,,,35.16564706,11.983,
1409217,2680057,PR_20081010_044915_146_LC16,2008-10-10 04:49:15.146464+00:00,r20081010_032919_ChevronRockS_14_transect,55.30409845,1,NC,0.466742104,0.335797462,-43.12101068,148.042236,2.288,,,35.15513333,11.98924444,
1408718,2665700,PR_20081010_043234_998_LC16,2008-10-10 04:32:34.998712+00:00,r20081010_032919_ChevronRockS_14_transect,70.34230014,1,NC,0.147102234,0.300274761,-43.11934007,148.0406448,2.522,,,35.1652,11.9825,
1416953,2745627,PR_20081012_025336_462_LC16,2008-10-12 02:53:36.462193+00:00,r20081011_231958_sisters_16_quadrep,61.89911179,1,NC,0.748683887,0.543343147,-42.95089988,148.0079137,2.14,,,35.18308716,11.97363761,
1410823,2712472,PR_20081010_054228_610_LC16,2008-10-10 05:42:28.610137+00:00,r20081010_032919_ChevronRockS_14_transect,37.55297472,1,NC,0.891567451,0.266649222,-43.11923194,148.045481,2.45,,,35.14586747,11.97836145,
1416144,2744027,PR_20081012_022656_241_LC16,2008-10-12 02:26:56.241960+00:00,r20081011_231958_sisters_16_quadrep,69.87708628,1,NC,0.452769851,0.964477299,-42.94792673,148.0040389,2.138,,,35.18762343,11.94357113,
1413452,2738627,PR_20081012_005655_506_LC16,2008-10-12 00:56:55.506040+00:00,r20081011_231958_sisters_16_quadrep,47.7483917,1,NC,0.638394175,0.949038336,-42.95280392,148.0059421,2.478,,,35.1752,11.9642,
1417678,2747027,PR_20081012_031656_649_LC16,2008-10-12 03:16:56.649514+00:00,r20081011_231958_sisters_16_quadrep,52.40099334,1,NC,0.754883149,0.217337259,-42.95314455,148.0043805,2.255,,,35.17487931,11.95612069,
1413606,2738912,PR_20081012_010140_542_LC16,2008-10-12 01:01:40.542889+00:00,r20081011_231958_sisters_16_quadrep,41.45947715,1,NC,0.927921279,0.818384037,-42.9537213,148.0059828,1.905,,,35.17439437,11.97311268,
1418060,2747827,PR_20081012_033016_763_LC16,2008-10-12 03:30:16.763474+00:00,r20081011_231958_sisters_16_quadrep,51.75617756,1,NC,0.245510455,0.975793261,-42.95372417,148.0074347,2.243,,,35.17295775,11.95747887,
1418393,2748527,PR_20081012_034156_856_LC16,2008-10-12 03:41:56.856021+00:00,r20081011_231958_sisters_16_quadrep,44.47644101,1,NC,0.257908979,0.635328754,-42.9561031,148.0082698,2.04,,,35.163,12.0005,
1412807,2737327,PR_20081012_003515_323_LC16,2008-10-12 00:35:15.323206+00:00,r20081011_231958_sisters_16_quadrep,63.92780506,1,NC,0.738118666,0.775284574,-42.94836365,148.0057167,2.93,,,35.1854,11.9326,
1412620,2736927,PR_20081012_002835_267_LC16,2008-10-12 00:28:35.267784+00:00,r20081011_231958_sisters_16_quadrep,72.84706818,1,NC,0.946964479,0.124558419,-42.94687984,148.0056648,1.99,,,35.19053459,11.93879245,
1408594,2662787,PR_20081010_042914_967_LC16,2008-10-10 04:29:14.967358+00:00,r20081010_032919_ChevronRockS_14_transect,75.704302,1,NC,0.398159992,0.92195473,-43.11885013,148.0405303,2.06,,,35.16766667,11.982,
1410243,2702463,PR_20081010_052415_451_LC16,2008-10-10 05:24:15.451691+00:00,r20081010_032919_ChevronRockS_14_transect,44.74829679,1,NC,0.876758831,0.673034149,-43.12108007,148.0452575,2.03,,,35.15082353,11.99189706,
1412208,2736127,PR_20081012_001515_154_LC16,2008-10-12 00:15:15.154433+00:00,r20081011_231958_sisters_16_quadrep,66.8832358,1,NC,0.342812162,0.317872563,-42.94789201,148.0047583,2.807,,,35.18627778,11.93105556,
1415237,2742227,PR_20081012_015655_997_LC16,2008-10-12 01:56:55.997940+00:00,r20081011_231958_sisters_16_quadrep,71.08574486,1,NC,0.993899439,0.721771556,-42.94802407,148.006765,2,,,35.18637288,11.94413559,
1412515,2736727,PR_20081012_002515_242_LC16,2008-10-12 00:25:15.242447+00:00,r20081011_231958_sisters_16_quadrep,74.13546999,1,NC,0.182229657,0.961860526,-42.9461493,148.0056267,2.04,,,35.18604605,11.94195395,
1413486,2738727,PR_20081012_005835_516_LC16,2008-10-12 00:58:35.516044+00:00,r20081011_231958_sisters_16_quadrep,43.65811178,1,NC,0.674210371,0.252126128,-42.95310979,148.0059573,2.665,,,35.17427586,11.96327586,
1409717,2691476,PR_20081010_050555_289_LC16,2008-10-10 05:05:55.289896+00:00,r20081010_032919_ChevronRockS_14_transect,50.73938158,1,NC,0.108481748,0.231388198,-43.11882873,148.0437973,2.633,,,35.15207692,11.97896154,
1411821,2735327,PR_20081012_000155_047_LC16,2008-10-12 00:01:55.047177+00:00,r20081011_231958_sisters_16_quadrep,58.11755042,1,NC,0.70943619,0.47232762,-42.95104096,148.0048918,2.15,,,35.18067857,11.94132143,
1412962,2737627,PR_20081012_004015_364_LC16,2008-10-12 00:40:15.364032+00:00,r20081011_231958_sisters_16_quadrep,54.08494992,1,NC,0.065236643,0.515896899,-42.94931157,148.005766,2.08,,,35.18086207,11.94193103,
1410345,2704368,PR_20081010_052725_479_LC16,2008-10-10 05:27:25.479743+00:00,r20081010_032919_ChevronRockS_14_transect,43.9813312,1,NC,0.158958969,0.422608923,-43.12076605,148.0454284,2.573,,,35.15070898,11.99311719,
1411084,2733927,PR_20081011_233834_846_LC16,2008-10-11 23:38:34.846842+00:00,r20081011_231958_sisters_16_quadrep,40.82680284,1,NC,0.319787464,0.644903834,-42.95636172,148.005119,2.145,,,35.17361111,11.982,
1415905,2743527,PR_20081012_021836_177_LC16,2008-10-12 02:18:36.177806+00:00,r20081011_231958_sisters_16_quadrep,74.3148399,1,NC,0.392010233,0.088839461,-42.94617743,148.0042035,2.01,,,35.19201163,11.93700581,
1413093,2737913,PR_20081012_004501_407_LC16,2008-10-12 00:45:01.407265+00:00,r20081011_231958_sisters_16_quadrep,54.84503264,1,NC,0.601180812,0.866928361,-42.95032495,148.0058178,2.803,,,35.177,11.94269697,
1412401,2736527,PR_20081012_002155_210_LC16,2008-10-12 00:21:55.210068+00:00,r20081011_231958_sisters_16_quadrep,74.151251,1,NC,0.088507331,0.02564438,-42.94621967,148.0047253,2.03,,,35.18768675,11.938,
1409109,2677862,PR_20081010_044611_117_LC16,2008-10-10 04:46:11.117359+00:00,r20081010_032919_ChevronRockS_14_transect,49.81118026,1,NC,0.123339565,0.12841816,-43.12109572,148.0415224,3.195,,,35.15181818,11.98027273,
1415421,2742527,PR_20081012_020156_036_LC16,2008-10-12 02:01:56.036919+00:00,r20081011_231958_sisters_16_quadrep,72.81245814,1,NC,0.946718489,0.042718828,-42.9467851,148.0067426,2.04,,,35.18750282,11.93848588,
1416241,2744227,PR_20081012_023016_272_LC16,2008-10-12 02:30:16.272153+00:00,r20081011_231958_sisters_16_quadrep,70.10384063,1,NC,0.122454,0.840442235,-42.94868967,148.0040764,2.09,,,35.18866667,11.95358333,
1408789,2668790,PR_20081010_043555_028_LC16,2008-10-10 04:35:55.028862+00:00,r20081010_032919_ChevronRockS_14_transect,66.5081921,1,NC,0.389255141,0.300274761,-43.11989544,148.0406654,1.845,,,35.16036986,11.987,
1416311,2744327,PR_20081012_023156_281_LC16,2008-10-12 02:31:56.281859+00:00,r20081011_231958_sisters_16_quadrep,67.78359951,1,NC,0.777083538,0.300078503,-42.94868369,148.0045506,2.177,,,35.183,11.9555,
1408567,2661218,PR_20081010_042734_957_LC16,2008-10-10 04:27:34.957091+00:00,r20081010_032919_ChevronRockS_14_transect,78.15460234,1,NC,0.853094559,0.607287714,-43.11885419,148.0400508,2.05,,,35.16216667,11.98633333,
1418525,2748727,PR_20081012_034516_886_LC16,2008-10-12 03:45:16.886048+00:00,r20081011_231958_sisters_16_quadrep,43.47497118,1,NC,0.286642066,0.430945371,-42.95620842,148.0073426,2.03,,,35.163,12.0715,
1417259,2746227,PR_20081012_030336_544_LC16,2008-10-12 03:03:36.544881+00:00,r20081011_231958_sisters_16_quadrep,54.04708213,1,NC,0.971709717,0.283807655,-42.95125698,148.0055898,2.072,,,35.17819875,11.95171518,
1415671,2743027,PR_20081012_021016_104_LC16,2008-10-12 02:10:16.104789+00:00,r20081011_231958_sisters_16_quadrep,73.55374964,1,NC,0.313736102,0.637969384,-42.94613169,148.0069584,2.16,,,35.19176953,11.94027734,
1409015,2674914,PR_20081010_044235_088_LC16,2008-10-10 04:42:35.088329+00:00,r20081010_032919_ChevronRockS_14_transect,62.26924533,1,NC,0.876512841,0.540298312,-43.12104472,148.0407094,1.877,,,35.15560377,11.98301887,
1418626,2748927,PR_20081012_034836_910_LC16,2008-10-12 03:48:36.910802+00:00,r20081011_231958_sisters_16_quadrep,42.24922696,1,NC,0.109372694,0.503369316,-42.95624229,148.0061234,2.04,,,35.16246154,12.07223077,
1408344,2655170,PR_20081010_042054_896_LC16,2008-10-10 04:20:54.896353+00:00,r20081010_032919_ChevronRockS_14_transect,85.56151673,1,NC,0.313932894,0.249313097,-43.11947512,148.0390449,2.02,,,35.16876923,11.98953846,
1418655,2749027,PR_20081012_035016_922_LC16,2008-10-12 03:50:16.922668+00:00,r20081011_231958_sisters_16_quadrep,41.77578385,1,NC,0.358671587,0.958456003,-42.95625571,148.0055902,2.18,,,35.16567857,12.06146429,
1407587,2631680,PR_20081010_035317_649_LC16,2008-10-10 03:53:17.649982+00:00,r20081010_032919_ChevronRockS_14_transect,42.15786695,1,NC,0.205549542,0.688473113,-43.11994008,148.0429059,2.29,,,35.14742857,11.98228571,
1418628,2748927,PR_20081012_034836_910_LC16,2008-10-12 03:48:36.910802+00:00,r20081011_231958_sisters_16_quadrep,42.24922696,1,NC,0.165756458,0.286817141,-42.95624229,148.0061234,2.04,,,35.16246154,12.07223077,
1413015,2737727,PR_20081012_004155_381_LC16,2008-10-12 00:41:55.381356+00:00,r20081011_231958_sisters_16_quadrep,58.54341479,1,NC,0.816245203,0.269135156,-42.94970898,148.0057867,2.535,,,35.18654545,11.94159091,
1412261,2736227,PR_20081012_001655_171_LC16,2008-10-12 00:16:55.171407+00:00,r20081011_231958_sisters_16_quadrep,71.43903022,1,NC,0.308865492,0.123250033,-42.94750007,148.0047544,2.1,,,35.18646667,11.93246667,
1410432,2706474,PR_20081010_053055_506_LC16,2008-10-10 05:30:55.506549+00:00,r20081010_032919_ChevronRockS_14_transect,40.43351197,1,NC,0.868591951,0.016289415,-43.12036556,148.0454311,1.5,,,35.15358008,11.98491406,
1418456,2748627,PR_20081012_034336_872_LC16,2008-10-12 03:43:36.872483+00:00,r20081011_231958_sisters_16_quadrep,43.99189674,1,NC,0.858204182,0.127903173,-42.95620094,148.0079262,1.97,,,35.16466667,12.05633333,
1411806,2735327,PR_20081012_000155_047_LC16,2008-10-12 00:01:55.047177+00:00,r20081011_231958_sisters_16_quadrep,58.11755042,1,NC,0.533011906,0.198024336,-42.95104096,148.0048918,2.15,,,35.18067857,11.94132143,
1418134,2748027,PR_20081012_033336_785_LC16,2008-10-12 03:33:36.785896+00:00,r20081011_231958_sisters_16_quadrep,51.96721558,1,NC,0.437589176,0.058554138,-42.95395999,148.0081353,2.02,,,35.172,11.95629348,
1410596,2709298,PR_20081010_053551_549_LC16,2008-10-10 05:35:51.549628+00:00,r20081010_032919_ChevronRockS_14_transect,31.38985055,1,NC,0.995768966,0.970299621,-43.1196695,148.0454404,1.36,,,35.144,11.97671429,
1414330,2740427,PR_20081012_012655_753_LC16,2008-10-12 01:26:55.753177+00:00,r20081011_231958_sisters_16_quadrep,47.2827051,1,NC,0.77398406,0.184613372,-42.95470568,148.00701,2.07,,,35.17853763,11.97446237,
1411451,2734627,PR_20081011_235014_949_LC16,2008-10-11 23:50:14.949020+00:00,r20081011_231958_sisters_16_quadrep,48.36003374,1,NC,0.507970088,0.495616904,-42.95383988,148.0050317,2.192,,,35.17889655,11.966,
1412725,2737127,PR_20081012_003155_293_LC16,2008-10-12 00:31:55.293493+00:00,r20081011_231958_sisters_16_quadrep,70.00185021,1,NC,0.428908787,0.718108073,-42.94767405,148.0056935,2.583,,,35.18575,11.935625,
1417332,2746427,PR_20081012_030656_567_LC16,2008-10-12 03:06:56.567369+00:00,r20081011_231958_sisters_16_quadrep,58.21782879,1,NC,0.952078721,0.695649329,-42.95127574,148.0045226,2.13,,,35.18258059,11.94858529,
1416790,2745327,PR_20081012_024836_422_LC16,2008-10-12 02:48:36.422386+00:00,r20081011_231958_sisters_16_quadrep,64.90166461,1,NC,0.694514145,0.645142296,-42.94981963,148.0078788,2.058,,,35.1824902,11.96870588,
1407383,2626278,PR_20081010_034554_587_LC16,2008-10-10 03:45:54.587891+00:00,r20081010_032919_ChevronRockS_14_transect,36.64110931,1,NC,0.473088655,0.413973571,-43.11991347,148.044598,2.708,,,35.1448961,11.98420779,
1414928,2741527,PR_20081012_014515_902_LC16,2008-10-12 01:45:15.902716+00:00,r20081011_231958_sisters_16_quadrep,48.55026944,1,NC,0.801879366,0.893693576,-42.9507636,148.006852,2.1,,,35.18315068,11.95957534,
1418489,2748727,PR_20081012_034516_886_LC16,2008-10-12 03:45:16.886048+00:00,r20081011_231958_sisters_16_quadrep,43.47497118,1,NC,0.852841328,0.265685312,-42.95620842,148.0073426,2.03,,,35.163,12.0715,
1414236,2740227,PR_20081012_012335_722_LC16,2008-10-12 01:23:35.722411+00:00,r20081011_231958_sisters_16_quadrep,44.83860016,1,NC,0.212830857,0.222818265,-42.95558692,148.0070531,2.01,,,35.17723485,11.9765303,
1417704,2747127,PR_20081012_031836_667_LC16,2008-10-12 03:18:36.667723+00:00,r20081011_231958_sisters_16_quadrep,51.67908847,1,NC,0.021303813,0.523388943,-42.95348057,148.0044029,2.138,,,35.1722,11.952,
1412789,2737327,PR_20081012_003515_323_LC16,2008-10-12 00:35:15.323206+00:00,r20081011_231958_sisters_16_quadrep,63.92780506,1,NC,0.024943422,0.685136726,-42.94836365,148.0057167,2.93,,,35.1854,11.9326,
1410601,2709298,PR_20081010_053551_549_LC16,2008-10-10 05:35:51.549628+00:00,r20081010_032919_ChevronRockS_14_transect,31.38985055,1,NC,0.130719276,0.917767892,-43.1196695,148.0454404,1.36,,,35.144,11.97671429,
1407418,2626278,PR_20081010_034554_587_LC16,2008-10-10 03:45:54.587891+00:00,r20081010_032919_ChevronRockS_14_transect,36.64110931,1,NC,0.215438355,0.31721837,-43.11991347,148.044598,2.708,,,35.1448961,11.98420779,
1418173,2748027,PR_20081012_033336_785_LC16,2008-10-12 03:33:36.785896+00:00,r20081011_231958_sisters_16_quadrep,51.96721558,1,NC,0.049889299,0.718482172,-42.95395999,148.0081353,2.02,,,35.172,11.95629348,
1409484,2687314,PR_20081010_045915_232_LC16,2008-10-10 04:59:15.232969+00:00,r20081010_032919_ChevronRockS_14_transect,61.02930881,1,NC,0.106415429,0.447729949,-43.11890809,148.0422294,2.415,,,35.16114516,11.97920968,
1409304,2682552,PR_20081010_045235_175_LC16,2008-10-10 04:52:35.175096+00:00,r20081010_032919_ChevronRockS_14_transect,48.7646614,1,NC,0.504378628,0.177940599,-43.12039791,148.0422345,2.003,,,35.15352273,11.98135227,
1413703,2739127,PR_20081012_010515_573_LC16,2008-10-12 01:05:15.573193+00:00,r20081011_231958_sisters_16_quadrep,44.42151131,1,NC,0.651382466,0.688342274,-42.95450659,148.0060197,2.428,,,35.17878716,11.97370946,
1407666,2632782,PR_20081010_035447_666_LC16,2008-10-10 03:54:47.666389+00:00,r20081010_032919_ChevronRockS_14_transect,35.26665347,1,NC,0.39973433,0.326965851,-43.1199334,148.0427473,2.87,,,35.14422581,11.98109677,
1409955,2696458,PR_20081010_051415_360_LC16,2008-10-10 05:14:15.360745+00:00,r20081010_032919_ChevronRockS_14_transect,31.02481944,1,NC,0.679031782,0.251079419,-43.12006502,148.0438426,2.13,,,35.149,11.97828571,
1409333,2683766,PR_20081010_045415_187_LC16,2008-10-10 04:54:15.187440+00:00,r20081010_032919_ChevronRockS_14_transect,54.74215769,1,NC,0.031437568,0.556980243,-43.12002859,148.0422327,3.185,,,35.15468142,11.98895575,
1415515,2742727,PR_20081012_020516_066_LC16,2008-10-12 02:05:16.066924+00:00,r20081011_231958_sisters_16_quadrep,73.87129726,1,NC,0.602331989,0.066662305,-42.94612468,148.0068566,2.02,,,35.19364516,11.93947312,
1409785,2693453,PR_20081010_050915_320_LC16,2008-10-10 05:09:15.320734+00:00,r20081010_032919_ChevronRockS_14_transect,44.83877829,1,NC,0.946964479,0.923328536,-43.11934807,148.0438031,2.66,,,35.14884211,11.979,
1413562,2738827,PR_20081012_010015_528_LC16,2008-10-12 01:00:15.528779+00:00,r20081011_231958_sisters_16_quadrep,43.80587787,1,NC,0.638049788,0.140651577,-42.95345231,148.0059698,2.465,,,35.174,11.96661538,
1417369,2746427,PR_20081012_030656_567_LC16,2008-10-12 03:06:56.567369+00:00,r20081011_231958_sisters_16_quadrep,58.21782879,1,NC,0.581353014,0.953418384,-42.95127574,148.0045226,2.13,,,35.18258059,11.94858529,
1414998,2741727,PR_20081012_014835_932_LC16,2008-10-12 01:48:35.932303+00:00,r20081011_231958_sisters_16_quadrep,57.2923144,1,NC,0.345714848,0.501570064,-42.95001245,148.0068338,2.665,,,35.18480952,11.94940136,
1415986,2743727,PR_20081012_022156_204_LC16,2008-10-12 02:21:56.204750+00:00,r20081011_231958_sisters_16_quadrep,73.68066,1,NC,0.684394372,0.043896376,-42.94674784,148.0039908,1.97,,,35.18887866,11.93666736,
1416343,2744427,PR_20081012_023336_300_LC16,2008-10-12 02:33:36.300018+00:00,r20081011_231958_sisters_16_quadrep,65.77408477,1,NC,0.992423497,0.919599634,-42.94868498,148.0050197,2.143,,,35.18408333,11.96075,
1411249,2734227,PR_20081011_234334_889_LC16,2008-10-11 23:43:34.889041+00:00,r20081011_231958_sisters_16_quadrep,43.13892128,1,NC,0.564449474,0.750359806,-42.95533888,148.0050856,2.11,,,35.17558824,11.97329412,
1414366,2740427,PR_20081012_012655_753_LC16,2008-10-12 01:26:55.753177+00:00,r20081011_231958_sisters_16_quadrep,47.2827051,1,NC,0.655072321,0.948711239,-42.95470568,148.00701,2.07,,,35.17853763,11.97446237,
1413441,2738627,PR_20081012_005655_506_LC16,2008-10-12 00:56:55.506040+00:00,r20081011_231958_sisters_16_quadrep,47.7483917,1,NC,0.280478205,0.13044616,-42.95280392,148.0059421,2.478,,,35.1752,11.9642,
1418402,2748527,PR_20081012_034156_856_LC16,2008-10-12 03:41:56.856021+00:00,r20081011_231958_sisters_16_quadrep,44.47644101,1,NC,0.178351784,0.189728492,-42.9561031,148.0082698,2.04,,,35.163,12.0005,
1416607,2744927,PR_20081012_024156_365_LC16,2008-10-12 02:41:56.365523+00:00,r20081011_231958_sisters_16_quadrep,66.23248874,1,NC,0.378154982,0.228590121,-42.94873417,148.0073536,2.9,,,35.18837037,11.96059259,
1407969,2643315,PR_20081010_040734_779_LC16,2008-10-10 04:07:34.779603+00:00,r20081010_032919_ChevronRockS_14_transect,83.43137569,1,NC,0.526173374,0.717911815,-43.11997952,148.039216,3.185,,,35.169,11.98418182,
1411373,2734427,PR_20081011_234654_920_LC16,2008-10-11 23:46:54.921000+00:00,r20081011_231958_sisters_16_quadrep,44.24990782,1,NC,0.281560563,0.803218631,-42.95458931,148.0050584,2.147,,,35.1745625,11.9683125,
1410740,2711746,PR_20081010_054055_593_LC16,2008-10-10 05:40:55.593896+00:00,r20081010_032919_ChevronRockS_14_transect,27.18896897,1,NC,0.925268129,0.577652754,-43.118874,148.0454971,2.845,,,35.1455283,11.97526415,
1411481,2734727,PR_20081011_235154_962_LC16,2008-10-11 23:51:54.962993+00:00,r20081011_231958_sisters_16_quadrep,51.16872866,1,NC,0.615861458,0.454926076,-42.9534471,148.0050213,2.06,,,35.1790625,11.9629375,
1416493,2744727,PR_20081012_023836_341_LC16,2008-10-12 02:38:36.341023+00:00,r20081011_231958_sisters_16_quadrep,55.29598783,1,NC,0.455252153,0.891265947,-42.94874289,148.0062136,2.09,,,35.18375,11.964375,
1417792,2747327,PR_20081012_032156_690_LC16,2008-10-12 03:21:56.690403+00:00,r20081011_231958_sisters_16_quadrep,48.96889921,1,NC,0.887675277,0.504808636,-42.95374211,148.004933,2.042,,,35.171,11.95394118,
1409051,2676399,PR_20081010_044420_102_LC16,2008-10-10 04:44:20.102881+00:00,r20081010_032919_ChevronRockS_14_transect,59.9719504,1,NC,0.05126439,0.582624624,-43.12109286,148.0410895,3.39,,,35.1564,11.9876,
1418706,2749127,PR_20081012_035156_939_LC16,2008-10-12 03:51:56.939264+00:00,r20081011_231958_sisters_16_quadrep,41.01700154,1,NC,0.68300123,0.07196598,-42.95626246,148.0051314,2.248,,,35.168,12.059,
1409744,2692453,PR_20081010_050735_306_LC16,2008-10-10 05:07:35.306071+00:00,r20081010_032919_ChevronRockS_14_transect,47.33246703,1,NC,0.601840008,0.801779406,-43.11906919,148.0437955,3.015,,,35.1514058,11.98477536,
1408357,2655170,PR_20081010_042054_896_LC16,2008-10-10 04:20:54.896353+00:00,r20081010_032919_ChevronRockS_14_transect,85.56151673,1,NC,0.439240382,0.819115531,-43.11947512,148.0390449,2.02,,,35.16876923,11.98953846,
1409310,2682552,PR_20081010_045235_175_LC16,2008-10-10 04:52:35.175096+00:00,r20081010_032919_ChevronRockS_14_transect,48.7646614,1,NC,0.48750369,0.241528196,-43.12039791,148.0422345,2.003,,,35.15352273,11.98135227,
1416809,2745327,PR_20081012_024836_422_LC16,2008-10-12 02:48:36.422386+00:00,r20081011_231958_sisters_16_quadrep,64.90166461,1,NC,0.098696187,0.618122342,-42.94981963,148.0078788,2.058,,,35.1824902,11.96870588,
1415458,2742627,PR_20081012_020336_050_LC16,2008-10-12 02:03:36.050498+00:00,r20081011_231958_sisters_16_quadrep,73.5695853,1,NC,0.775361606,0.242378647,-42.94637414,148.0067337,2.04,,,35.18787947,11.93660264,
1417438,2746627,PR_20081012_031016_598_LC16,2008-10-12 03:10:16.598204+00:00,r20081011_231958_sisters_16_quadrep,58.3509244,1,NC,0.766642066,0.213150147,-42.95179052,148.0043092,2.05,,,35.18696244,11.9454554,
1416659,2745027,PR_20081012_024336_381_LC16,2008-10-12 02:43:36.381537+00:00,r20081011_231958_sisters_16_quadrep,68.70979275,1,NC,0.783813038,0.819365391,-42.94873741,148.0078348,2.16,,,35.19251351,11.96167568,
1414215,2740127,PR_20081012_012155_707_LC16,2008-10-12 01:21:55.707487+00:00,r20081011_231958_sisters_16_quadrep,43.69556094,1,NC,0.279494244,0.446486982,-42.95601951,148.0070718,2.04,,,35.17625532,11.97923404,
1415998,2743727,PR_20081012_022156_204_LC16,2008-10-12 02:21:56.204750+00:00,r20081011_231958_sisters_16_quadrep,73.68066,1,NC,0.760159402,0.434580662,-42.94674784,148.0039908,1.97,,,35.18887866,11.93666736,
1409074,2676399,PR_20081010_044420_102_LC16,2008-10-10 04:44:20.102881+00:00,r20081010_032919_ChevronRockS_14_transect,59.9719504,1,NC,0.253714454,0.036503991,-43.12109286,148.0410895,3.39,,,35.1564,11.9876,
1413917,2739527,PR_20081012_011155_627_LC16,2008-10-12 01:11:55.627431+00:00,r20081011_231958_sisters_16_quadrep,42.66611554,1,NC,0.697431861,0.592175847,-42.95609043,148.0061242,1.99,,,35.17456,11.98588,
1417836,2747427,PR_20081012_032336_706_LC16,2008-10-12 03:23:36.706289+00:00,r20081011_231958_sisters_16_quadrep,45.94018214,1,NC,0.169790898,0.11193981,-42.95373688,148.0054456,2.2,,,35.16913846,11.95478462,
1408659,2664238,PR_20081010_043054_983_LC16,2008-10-10 04:30:54.983164+00:00,r20081010_032919_ChevronRockS_14_transect,73.44044118,1,NC,0.185476729,0.691416983,-43.11902493,148.0406275,2.09,,,35.1622243,11.98993458,
1414088,2739927,PR_20081012_011835_683_LC16,2008-10-12 01:18:35.683895+00:00,r20081011_231958_sisters_16_quadrep,41.00792386,1,NC,0.467430877,0.76684548,-42.95688772,148.0070916,2.07,,,35.18451872,11.98473262,
1414571,2740827,PR_20081012_013335_804_LC16,2008-10-12 01:33:35.804866+00:00,r20081011_231958_sisters_16_quadrep,52.95966173,1,NC,0.013480272,0.649941123,-42.95321573,148.0069522,2.08,,,35.1795,11.983,
1407298,2623919,PR_20081010_034234_558_LC16,2008-10-10 03:42:34.558423+00:00,r20081010_032919_ChevronRockS_14_transect,37.84214756,1,NC,0.170077733,0.764294125,-43.11991006,148.0453547,1.84,,,35.14250327,11.98598693,
1408137,2649206,PR_20081010_041414_833_LC16,2008-10-10 04:14:14.833978+00:00,r20081010_032919_ChevronRockS_14_transect,87.47377239,1,NC,0.900226311,0.218173492,-43.12104672,148.0390516,1.772,,,35.1705,11.993,
1417233,2746227,PR_20081012_030336_544_LC16,2008-10-12 03:03:36.544881+00:00,r20081011_231958_sisters_16_quadrep,54.04708213,1,NC,0.764723247,0.661498201,-42.95125698,148.0055898,2.072,,,35.17819875,11.95171518,
1413533,2738827,PR_20081012_010015_528_LC16,2008-10-12 01:00:15.528779+00:00,r20081011_231958_sisters_16_quadrep,43.80587787,1,NC,0.90918036,0.290985215,-42.95345231,148.0059698,2.465,,,35.174,11.96661538,
1414399,2740527,PR_20081012_012835_766_LC16,2008-10-12 01:28:35.766698+00:00,r20081011_231958_sisters_16_quadrep,48.62163471,1,NC,0.541424776,0.722033233,-42.95431359,148.0069945,2.21,,,35.17709091,11.97886364,
1408906,2671806,PR_20081010_043915_056_LC16,2008-10-10 04:39:15.056955+00:00,r20081010_032919_ChevronRockS_14_transect,65.15718333,1,NC,0.271622552,0.883880675,-43.12053194,148.0406887,3.405,,,35.158875,11.98525,
