kpid,image__id,image_name,date_time,campaign,deployment,depth,label,code,x,y,latitude,longitude,altitude,pitch,roll,salinity,temperature,yaw
1415241,2742227,PR_20081012_015655_997_LC16,2008-10-12 01:56:55.997940+00:00,Tasmania 2008,r20081011_231958_sisters_16_quadrep,71.0857448602753,1,NC,0.464380596280626,0.76821928562083,-42.9480240671,148.006765013,2.0,,,35.1863728813559,11.9441355932203,
1416223,2744127,PR_20081012_022836_255_LC16,2008-10-12 02:28:36.255529+00:00,Tasmania 2008,r20081011_231958_sisters_16_quadrep,70.7270777031657,1,NC,0.448292826921185,0.520934188146016,-42.948326736,148.004053336,2.05,,,35.1872050209205,11.9458723849372,
1416227,2744127,PR_20081012_022836_255_LC16,2008-10-12 02:28:36.255529+00:00,Tasmania 2008,r20081011_231958_sisters_16_quadrep,70.7270777031657,1,NC,0.994883400570698,0.749443935627371,-42.948326736,148.004053336,2.05,,,35.1872050209205,11.9458723849372,
1409664,2690539,PR_20081010_050426_275_LC16,2008-10-10 05:04:26.275880+00:00,Tasmania 2008,r20081010_032919_ChevronRockS_14_transect,54.9374621864139,1,NC,0.99340745842763,0.102315844563653,-43.1188368657,148.04341728,1.972,,,35.1521690140845,11.9917323943662,
1415066,2741840,PR_20081012_015028_947_LC16,2008-10-12 01:50:28.947752+00:00,Tasmania 2008,r20081011_231958_sisters_16_quadrep,61.8147348354596,1,NC,0.0810332103321033,0.303173045469414,-42.9495930012,148.006813134,2.543,,,35.182,11.9495,
1415514,2742727,PR_20081012_020516_066_LC16,2008-10-12 02:05:16.066924+00:00,Tasmania 2008,r20081011_231958_sisters_16_quadrep,73.8712972556123,1,NC,0.762127324608875,0.247154258798901,-42.9461246783,148.006856641,2.02,,,35.1936451612903,11.9394731182796,
1410634,2710134,PR_20081010_053735_568_LC16,2008-10-10 05:37:35.568202+00:00,Tasmania 2008,r20081010_032919_ChevronRockS_14_transect,33.7721701159136,1,NC,0.354865689264981,0.781041475860264,-43.1193764971,148.045450977,1.62,,,35.1455106382979,11.9776241134752,
1413069,2737827,PR_20081012_004335_394_LC16,2008-10-12 00:43:35.394992+00:00,Tasmania 2008,r20081011_231958_sisters_16_quadrep,56.4105089906146,1,NC,0.15172685230739,0.0168127698547691,-42.9500400641,148.005805373,2.298,,,35.1782660550459,11.9427981651376,
1407444,2627470,PR_20081010_034734_602_LC16,2008-10-10 03:47:34.602365+00:00,Tasmania 2008,r20081010_032919_ChevronRockS_14_transect,37.4942507328957,1,NC,0.312604545901801,0.176370535130184,-43.1199168768,148.04410947,1.83,,,35.1476046511628,11.9837209302326,
1414841,2741427,PR_20081012_014335_887_LC16,2008-10-12 01:43:35.887750+00:00,Tasmania 2008,r20081011_231958_sisters_16_quadrep,52.582031116754,1,NC,0.173865984453409,0.213594138427319,-42.9510848214,148.006864441,2.15,,,35.178,11.9564545454545,
1411297,2734327,PR_20081011_234514_906_LC16,2008-10-11 23:45:14.906752+00:00,Tasmania 2008,r20081011_231958_sisters_16_quadrep,43.644819290475,1,NC,0.282150939683164,0.933599371974356,-42.9549692126,148.005071513,2.05,,,35.1750833333333,11.97,
1411908,2735527,PR_20081012_000515_075_LC16,2008-10-12 00:05:15.075322+00:00,Tasmania 2008,r20081011_231958_sisters_16_quadrep,60.9494671069229,1,NC,0.348420741906917,0.678202276592961,-42.9502306215,148.004846807,2.13,,,35.1805882352941,11.937,
1409719,2691476,PR_20081010_050555_289_LC16,2008-10-10 05:05:55.289896+00:00,Tasmania 2008,r20081010_032919_ChevronRockS_14_transect,50.7393815790051,1,NC,0.900029518842861,0.313554886824545,-43.1188287323,148.043797323,2.633,,,35.1520769230769,11.9789615384615,
1407471,2627470,PR_20081010_034734_602_LC16,2008-10-10 03:47:34.602365+00:00,Tasmania 2008,r20081010_032919_ChevronRockS_14_transect,37.4942507328957,1,NC,0.192413657384631,0.693117885646997,-43.1199168768,148.04410947,1.83,,,35.1476046511628,11.9837209302326,
1416373,2744427,PR_20081012_023336_300_LC16,2008-10-12 02:33:36.300018+00:00,Tasmania 2008,r20081011_231958_sisters_16_quadrep,65.774084767916,1,NC,0.436337695562334,0.115334292816957,-42.948684977,148.005019712,2.143,,,35.1840833333333,11.96075,
1408042,2646336,PR_20081010_041054_806_LC16,2008-10-10 04:10:54.806301+00:00,Tasmania 2008,r20081010_032919_ChevronRockS_14_transect,86.3868794596613,1,NC,0.852897766407557,0.986523616381002,-43.1204998572,148.039030082,2.09,,,35.1684877192982,11.9845368421053,
1409293,2682552,PR_20081010_045235_175_LC16,2008-10-10 04:52:35.175096+00:00,Tasmania 2008,r20081010_032919_ChevronRockS_14_transect,48.7646614044605,1,NC,0.291400177113057,0.211173622922936,-43.1203979098,148.042234489,2.003,,,35.1535227272727,11.9813522727273,
1414804,2741327,PR_20081012_014155_877_LC16,2008-10-12 01:41:55.877462+00:00,Tasmania 2008,r20081011_231958_sisters_16_quadrep,49.3335636364243,1,NC,0.0592344780084621,0.619259453094335,-42.9514683286,148.00687676,2.223,,,35.1842542372881,11.9617457627119,
1409040,2676399,PR_20081010_044420_102_LC16,2008-10-10 04:44:20.102881+00:00,Tasmania 2008,r20081010_032919_ChevronRockS_14_transect,59.9719503950565,1,NC,0.862884974908984,0.833376946225304,-43.1210928614,148.041089481,3.39,,,35.1564,11.9876,
1416164,2744027,PR_20081012_022656_241_LC16,2008-10-12 02:26:56.241960+00:00,Tasmania 2008,r20081011_231958_sisters_16_quadrep,69.8770862753992,1,NC,0.141985634163141,0.252714902525186,-42.947926733,148.004038936,2.138,,,35.1876234309623,11.9435711297071,
1417220,2746127,PR_20081012_030156_530_LC16,2008-10-12 03:01:56.530915+00:00,Tasmania 2008,r20081011_231958_sisters_16_quadrep,52.6829163044872,1,NC,0.539778597785978,0.80883218842002,-42.9512401973,148.006114488,2.22,,,35.1760078247261,11.9532801251956,
1414191,2740127,PR_20081012_012155_707_LC16,2008-10-12 01:21:55.707487+00:00,Tasmania 2008,r20081011_231958_sisters_16_quadrep,43.6955609371755,1,NC,0.220210567745744,0.827358367133325,-42.956019511,148.007071825,2.04,,,35.1762553191489,11.9792340425532,
1407768,2637347,PR_20081010_040054_720_LC16,2008-10-10 04:00:54.720675+00:00,Tasmania 2008,r20081010_032919_ChevronRockS_14_transect,61.3421475092306,1,NC,0.443077831349011,0.965196912207248,-43.1199622081,148.041173139,2.545,,,35.1565833333333,11.9828333333333,
1414170,2740027,PR_20081012_012015_696_LC16,2008-10-12 01:20:15.696652+00:00,Tasmania 2008,r20081011_231958_sisters_16_quadrep,42.3240910454735,1,NC,0.668798583095543,0.141044092633783,-42.9564594094,148.007085038,2.02,,,35.1797058823529,11.9820588235294,
1417333,2746427,PR_20081012_030656_567_LC16,2008-10-12 03:06:56.567369+00:00,Tasmania 2008,r20081011_231958_sisters_16_quadrep,58.2178287857733,1,NC,0.740959409594096,0.0058881256133464,-42.951275742,148.004522559,2.13,,,35.1825805946792,11.9485852895149,
1407917,2641791,PR_20081010_040554_761_LC16,2008-10-10 04:05:54.761426+00:00,Tasmania 2008,r20081010_032919_ChevronRockS_14_transect,74.175371538023,1,NC,0.893879759913411,0.505070330389271,-43.1199709667,148.039760871,5.845,,,35.1656470588235,11.983,
1416251,2744227,PR_20081012_023016_272_LC16,2008-10-12 02:30:16.272153+00:00,Tasmania 2008,r20081011_231958_sisters_16_quadrep,70.1038406331866,1,NC,0.197825445242546,0.608857778359283,-42.9486896691,148.00407642,2.09,,,35.1886666666667,11.9535833333333,
1416650,2745027,PR_20081012_024336_381_LC16,2008-10-12 02:43:36.381537+00:00,Tasmania 2008,r20081011_231958_sisters_16_quadrep,68.7097927486291,1,NC,0.794046740467405,0.4183186130193,-42.9487374103,148.007834789,2.16,,,35.1925135135135,11.9616756756757,
1418094,2747927,PR_20081012_033156_776_LC16,2008-10-12 03:31:56.776904+00:00,Tasmania 2008,r20081011_231958_sisters_16_quadrep,52.4661998347379,1,NC,0.663173431734317,0.196925089957475,-42.9537172062,148.007944398,2.07,,,35.1722535211268,11.9571267605634,
1418232,2748227,PR_20081012_033656_813_LC16,2008-10-12 03:36:56.813175+00:00,Tasmania 2008,r20081011_231958_sisters_16_quadrep,48.9395439760702,1,NC,0.390455104551045,0.691331370624796,-42.9548352321,148.008185775,2.0,,,35.169,11.9614782608696,
1415968,2743627,PR_20081012_022016_187_LC16,2008-10-12 02:20:16.187616+00:00,Tasmania 2008,r20081011_231958_sisters_16_quadrep,74.1014400348956,1,NC,0.867116009052445,0.465916524924768,-42.9463508949,148.003977267,2.05,,,35.1903846153846,11.9373846153846,
1407638,2632782,PR_20081010_035447_666_LC16,2008-10-10 03:54:47.666389+00:00,Tasmania 2008,r20081010_032919_ChevronRockS_14_transect,35.2666534709679,1,NC,0.463741021351963,0.505691482402198,-43.1199334028,148.042747292,2.87,,,35.1442258064516,11.9810967741935,
1411698,2735127,PR_20081011_235835_017_LC16,2008-10-11 23:58:35.017528+00:00,Tasmania 2008,r20081011_231958_sisters_16_quadrep,55.8352906419933,1,NC,0.3313982091902,0.777705089624493,-42.9518795029,148.004928766,1.695,,,35.1795714285714,11.9524285714286,
1411402,2734521,PR_20081011_234828_931_LC16,2008-10-11 23:48:28.931280+00:00,Tasmania 2008,r20081011_231958_sisters_16_quadrep,44.3572650248266,1,NC,0.521525215252153,0.680013084723585,-42.9542456647,148.005045775,2.647,,,35.1755,11.966,
1408686,2665700,PR_20081010_043234_998_LC16,2008-10-10 04:32:34.998712+00:00,Tasmania 2008,r20081010_032919_ChevronRockS_14_transect,70.3423001360932,1,NC,0.352651776050379,0.717977234070391,-43.1193400702,148.040644758,2.522,,,35.1652,11.9825,
1412119,2735927,PR_20081012_001155_130_LC16,2008-10-12 00:11:55.130958+00:00,Tasmania 2008,r20081011_231958_sisters_16_quadrep,66.8171122256469,1,NC,0.310685821115812,0.674669632343321,-42.9486656118,148.004782303,2.23,,,35.1845384615385,11.9335384615385,
1412999,2737727,PR_20081012_004155_381_LC16,2008-10-12 00:41:55.381356+00:00,Tasmania 2008,r20081011_231958_sisters_16_quadrep,58.5434147885771,1,NC,0.646315064449474,0.3935627371451,-42.9497089766,148.005786718,2.535,,,35.1865454545455,11.9415909090909,
1410288,2703481,PR_20081010_052555_463_LC16,2008-10-10 05:25:55.463763+00:00,Tasmania 2008,r20081010_032919_ChevronRockS_14_transect,46.9966672673658,1,NC,0.689609367312801,0.642090802041083,-43.1209221357,148.045413494,2.578,,,35.149478515625,11.9966328125,
1407362,2625097,PR_20081010_034414_569_LC16,2008-10-10 03:44:14.569594+00:00,Tasmania 2008,r20081010_032919_ChevronRockS_14_transect,34.3526801279023,1,NC,0.468267243924038,0.526494831872302,-43.1199014526,148.044988559,2.62,,,35.1415263157895,11.9865263157895,
1416208,2744127,PR_20081012_022836_255_LC16,2008-10-12 02:28:36.255529+00:00,Tasmania 2008,r20081011_231958_sisters_16_quadrep,70.7270777031657,1,NC,0.357276394765325,0.373151903702735,-42.948326736,148.004053336,2.05,,,35.1872050209205,11.9458723849372,
1412868,2737422,PR_20081012_003650_337_LC16,2008-10-12 00:36:50.337484+00:00,Tasmania 2008,r20081011_231958_sisters_16_quadrep,61.0556495142254,1,NC,0.733923739237392,0.709584560026169,-42.9486743088,148.005730436,3.237,,,35.1798214285714,11.9333571428571,
1417607,2746927,PR_20081012_031516_640_LC16,2008-10-12 03:15:16.640390+00:00,Tasmania 2008,r20081011_231958_sisters_16_quadrep,53.8175718931985,1,NC,0.170971709717097,0.240562643114164,-42.9528200982,148.004362016,2.22,,,35.177313559322,11.9554576271186,
1417828,2747327,PR_20081012_032156_690_LC16,2008-10-12 03:21:56.690403+00:00,Tasmania 2008,r20081011_231958_sisters_16_quadrep,48.968899210409,1,NC,0.105682656826568,0.092705266601243,-42.9537421083,148.004933047,2.042,,,35.171,11.9539411764706,
1410978,2714865,PR_20081010_054727_653_LC16,2008-10-10 05:47:27.653665+00:00,Tasmania 2008,r20081010_032919_ChevronRockS_14_transect,33.977485257225,1,NC,0.759815015251402,0.151707444720659,-43.1199599332,148.045054161,2.06,,,35.1516476190476,11.9770857142857,
1416231,2744227,PR_20081012_023016_272_LC16,2008-10-12 02:30:16.272153+00:00,Tasmania 2008,r20081011_231958_sisters_16_quadrep,70.1038406331866,1,NC,0.657581422808226,0.855488682454534,-42.9486896691,148.00407642,2.09,,,35.1886666666667,11.9535833333333,
1415228,2742127,PR_20081012_015515_986_LC16,2008-10-12 01:55:15.986730+00:00,Tasmania 2008,r20081011_231958_sisters_16_quadrep,69.9882421597431,1,NC,0.185870313883696,0.826246238388068,-42.9484445612,148.006776025,2.01,,,35.18625,11.9455,
1411097,2733927,PR_20081011_233834_846_LC16,2008-10-11 23:38:34.846842+00:00,Tasmania 2008,r20081011_231958_sisters_16_quadrep,40.8268028445311,1,NC,0.152710813736102,0.0746434646081382,-42.9563617186,148.005118952,2.145,,,35.1736111111111,11.982,
1416038,2743827,PR_20081012_022336_213_LC16,2008-10-12 02:23:36.213803+00:00,Tasmania 2008,r20081011_231958_sisters_16_quadrep,73.089313597694,1,NC,0.721834104103119,0.692071176239696,-42.9471531862,148.004003784,2.06,,,35.188460251046,11.9389686192469,
1412663,2737027,PR_20081012_003015_282_LC16,2008-10-12 00:30:15.282850+00:00,Tasmania 2008,r20081011_231958_sisters_16_quadrep,72.3754179653925,1,NC,0.283823674111975,0.620175323825723,-42.9472957722,148.005680896,2.02,,,35.1908490566038,11.9369056603774,
1413681,2739127,PR_20081012_010515_573_LC16,2008-10-12 01:05:15.573193+00:00,Tasmania 2008,r20081011_231958_sisters_16_quadrep,44.4215113073539,1,NC,0.190593328741513,0.55109250294387,-42.9545065943,148.006019727,2.428,,,35.1787871621622,11.9737094594595,
1412069,2735827,PR_20081012_001015_116_LC16,2008-10-12 00:10:15.116658+00:00,Tasmania 2008,r20081011_231958_sisters_16_quadrep,64.4740276472892,1,NC,0.967135688281019,0.907693314143661,-42.9490801539,148.004798105,2.078,,,35.1827142857143,11.935,
1418161,2748027,PR_20081012_033336_785_LC16,2008-10-12 03:33:36.785896+00:00,Tasmania 2008,r20081011_231958_sisters_16_quadrep,51.9672155774366,1,NC,0.830947109471095,0.708276087667648,-42.9539599937,148.008135348,2.02,,,35.172,11.9562934782609,
1412325,2736327,PR_20081012_001835_185_LC16,2008-10-12 00:18:35.185431+00:00,Tasmania 2008,r20081011_231958_sisters_16_quadrep,72.7845841816,1,NC,0.37779199055397,0.93758995158969,-42.9470713844,148.004746203,2.02,,,35.186,11.9349393939394,
1409418,2684940,PR_20081010_045555_200_LC16,2008-10-10 04:55:55.200992+00:00,Tasmania 2008,r20081010_032919_ChevronRockS_14_transect,59.5159855889052,1,NC,0.476876906425268,0.0840638492738453,-43.1196458085,148.042237965,1.773,,,35.1604615384615,11.9900769230769,
1416293,2744327,PR_20081012_023156_281_LC16,2008-10-12 02:31:56.281859+00:00,Tasmania 2008,r20081011_231958_sisters_16_quadrep,67.7835995115953,1,NC,0.491537931713077,0.860983906842863,-42.9486836887,148.004550571,2.177,,,35.183,11.9555,
1410199,2701430,PR_20081010_052235_435_LC16,2008-10-10 05:22:35.435376+00:00,Tasmania 2008,r20081010_032919_ChevronRockS_14_transect,43.3000471187297,1,NC,0.979238413854177,0.806685856339134,-43.1210816762,148.04481211,2.08,,,35.1435909090909,11.9905757575758,
1408190,2650670,PR_20081010_041554_851_LC16,2008-10-10 04:15:54.851762+00:00,Tasmania 2008,r20081010_032919_ChevronRockS_14_transect,86.5224141406377,1,NC,0.260602184394372,0.0303545728117231,-43.120651476,148.039043032,2.12,,,35.1785,11.9835,
1413101,2737913,PR_20081012_004501_407_LC16,2008-10-12 00:45:01.407265+00:00,Tasmania 2008,r20081011_231958_sisters_16_quadrep,54.8450326446836,1,NC,0.752324723247232,0.467190055610075,-42.9503249453,148.005817829,2.803,,,35.177,11.942696969697,
1407756,2637347,PR_20081010_040054_720_LC16,2008-10-10 04:00:54.720675+00:00,Tasmania 2008,r20081010_032919_ChevronRockS_14_transect,61.3421475092306,1,NC,0.884974908983568,0.0094203846657071,-43.1199622081,148.041173139,2.545,,,35.1565833333333,11.9828333333333,
1407394,2626278,PR_20081010_034554_587_LC16,2008-10-10 03:45:54.587891+00:00,Tasmania 2008,r20081010_032919_ChevronRockS_14_transect,36.6411093082493,1,NC,0.227147495818164,0.0168127698547691,-43.1199134714,148.044597955,2.708,,,35.1448961038961,11.9842077922078,
1418717,2749127,PR_20081012_035156_939_LC16,2008-10-12 03:51:56.939264+00:00,Tasmania 2008,r20081011_231958_sisters_16_quadrep,41.0170015412084,1,NC,0.401574415744157,0.0701995420346745,-42.956262461,148.005131441,2.248,,,35.168,12.059,
1408606,2662787,PR_20081010_042914_967_LC16,2008-10-10 04:29:14.967358+00:00,Tasmania 2008,r20081010_032919_ChevronRockS_14_transect,75.704301997626,1,NC,0.563121125651874,0.0705220463168913,-43.1188501328,148.040530329,2.06,,,35.1676666666667,11.982,
1412179,2736127,PR_20081012_001515_154_LC16,2008-10-12 00:15:15.154433+00:00,Tasmania 2008,r20081011_231958_sisters_16_quadrep,66.883235804233,1,NC,0.906917248843845,0.649679445244014,-42.9478920076,148.004758338,2.807,,,35.1862777777778,11.9310555555556,
1417869,2747427,PR_20081012_032336_706_LC16,2008-10-12 03:23:36.706289+00:00,Tasmania 2008,r20081011_231958_sisters_16_quadrep,45.940182135396,1,NC,0.969151291512915,0.745829244357213,-42.9537368771,148.005445593,2.2,,,35.1691384615385,11.9547846153846,
1409480,2687314,PR_20081010_045915_232_LC16,2008-10-10 04:59:15.232969+00:00,Tasmania 2008,r20081010_032919_ChevronRockS_14_transect,61.0293088106031,1,NC,0.7974023418282,0.169305246630904,-43.1189080923,148.042229441,2.415,,,35.1611451612903,11.9792096774194,
1409557,2688490,PR_20081010_050055_244_LC16,2008-10-10 05:00:55.244661+00:00,Tasmania 2008,r20081010_032919_ChevronRockS_14_transect,60.8859412991657,1,NC,0.659450949522779,0.265864189454403,-43.1188423526,148.042549232,2.027,,,35.1605555555556,11.9932222222222,
1408359,2655170,PR_20081010_042054_896_LC16,2008-10-10 04:20:54.896353+00:00,Tasmania 2008,r20081010_032919_ChevronRockS_14_transect,85.5615167275556,1,NC,0.676178293810883,0.416001570064111,-43.1194751199,148.039044903,2.02,,,35.1687692307692,11.9895384615385,
1407682,2636046,PR_20081010_035914_705_LC16,2008-10-10 03:59:14.705616+00:00,Tasmania 2008,r20081010_032919_ChevronRockS_14_transect,58.2602616545768,1,NC,0.717898258388271,0.738846002878451,-43.1199584196,148.041642104,2.613,,,35.1551,11.983,
1407751,2637347,PR_20081010_040054_720_LC16,2008-10-10 04:00:54.720675+00:00,Tasmania 2008,r20081010_032919_ChevronRockS_14_transect,61.3421475092306,1,NC,0.750319787464331,0.353591521653801,-43.1199622081,148.041173139,2.545,,,35.1565833333333,11.9828333333333,
1411063,2733827,PR_20081011_233654_836_LC16,2008-10-11 23:36:54.836561+00:00,Tasmania 2008,r20081011_231958_sisters_16_quadrep,40.1711240299755,1,NC,0.587031388369576,0.197239303938244,-42.95670736,148.005122182,2.165,,,35.1738648648649,11.9837567567568,
1413596,2738912,PR_20081012_010140_542_LC16,2008-10-12 01:01:40.542889+00:00,Tasmania 2008,r20081011_231958_sisters_16_quadrep,41.4594771496732,1,NC,0.971611316113161,0.924304874059536,-42.9537213046,148.005982843,1.905,,,35.1743943661972,11.9731126760563,
1411287,2734327,PR_20081011_234514_906_LC16,2008-10-11 23:45:14.906752+00:00,Tasmania 2008,r20081011_231958_sisters_16_quadrep,43.644819290475,1,NC,0.849798287907114,0.741397357058747,-42.9549692126,148.005071513,2.05,,,35.1750833333333,11.97,
1411826,2735327,PR_20081012_000155_047_LC16,2008-10-12 00:01:55.047177+00:00,Tasmania 2008,r20081011_231958_sisters_16_quadrep,58.1175504243318,1,NC,0.273442881039063,0.381983514326835,-42.9510409595,148.004891772,2.15,,,35.1806785714286,11.9413214285714,
1418080,2747927,PR_20081012_033156_776_LC16,2008-10-12 03:31:56.776904+00:00,Tasmania 2008,r20081011_231958_sisters_16_quadrep,52.4661998347379,1,NC,0.358179581795818,0.980700032711809,-42.9537172062,148.007944398,2.07,,,35.1722535211268,11.9571267605634,
1408067,2646336,PR_20081010_041054_806_LC16,2008-10-10 04:10:54.806301+00:00,Tasmania 2008,r20081010_032919_ChevronRockS_14_transect,86.3868794596613,1,NC,0.437420053133917,0.981748004710192,-43.1204998572,148.039030082,2.09,,,35.1684877192982,11.9845368421053,
1412378,2736427,PR_20081012_002015_198_LC16,2008-10-12 00:20:15.198381+00:00,Tasmania 2008,r20081011_231958_sisters_16_quadrep,73.5756034098273,1,NC,0.447702450063957,0.772471542587989,-42.9466342478,148.004734396,2.04,,,35.187,11.9369714285714,
1408737,2667197,PR_20081010_043415_011_LC16,2008-10-10 04:34:15.011089+00:00,Tasmania 2008,r20081010_032919_ChevronRockS_14_transect,66.5869397897238,1,NC,0.949079996064154,0.463430590082428,-43.1195772764,148.040653515,2.743,,,35.1658181818182,11.981,
1409261,2681257,PR_20081010_045055_160_LC16,2008-10-10 04:50:55.160970+00:00,Tasmania 2008,r20081010_032919_ChevronRockS_14_transect,56.1867452259361,1,NC,0.207074682672439,0.394020672510794,-43.120669829,148.04223514,2.467,,,35.15485,11.9793833333333,
1415673,2743027,PR_20081012_021016_104_LC16,2008-10-12 02:10:16.104789+00:00,Tasmania 2008,r20081011_231958_sisters_16_quadrep,73.5537496406235,1,NC,0.677801830168257,0.976056522307994,-42.946131687,148.006958423,2.16,,,35.19176953125,11.94027734375,
1414372,2740427,PR_20081012_012655_753_LC16,2008-10-12 01:26:55.753177+00:00,Tasmania 2008,r20081011_231958_sisters_16_quadrep,47.2827050962741,1,NC,0.842762963691823,0.147258929739631,-42.9547056808,148.007009961,2.07,,,35.1785376344086,11.9744623655914,
1409126,2677862,PR_20081010_044611_117_LC16,2008-10-10 04:46:11.117359+00:00,Tasmania 2008,r20081010_032919_ChevronRockS_14_transect,49.8111802624073,1,NC,0.410311915772902,0.508766191286144,-43.1210957231,148.041522414,3.195,,,35.1518181818182,11.9802727272727,
1416995,2745727,PR_20081012_025516_476_LC16,2008-10-12 02:55:16.476844+00:00,Tasmania 2008,r20081011_231958_sisters_16_quadrep,61.5604200070349,1,NC,0.185387453874539,0.252142623487079,-42.9512111538,148.007904298,2.06,,,35.187,11.9753333333333,
1411799,2735327,PR_20081012_000155_047_LC16,2008-10-12 00:01:55.047177+00:00,Tasmania 2008,r20081011_231958_sisters_16_quadrep,58.1175504243318,1,NC,0.371396241267342,0.753172837890881,-42.9510409595,148.004891772,2.15,,,35.1806785714286,11.9413214285714,
1418587,2748927,PR_20081012_034836_910_LC16,2008-10-12 03:48:36.910802+00:00,Tasmania 2008,r20081011_231958_sisters_16_quadrep,42.2492269602809,1,NC,0.0205166051660517,0.450507033038927,-42.9562422868,148.006123432,2.04,,,35.1624615384615,12.0722307692308,
1411939,2735627,PR_20081012_000655_088_LC16,2008-10-12 00:06:55.088987+00:00,Tasmania 2008,r20081011_231958_sisters_16_quadrep,60.1126414899577,1,NC,0.973531437567647,0.655959701687819,-42.9498517861,148.004829038,1.895,,,35.183,11.93975,
1417127,2745927,PR_20081012_025836_502_LC16,2008-10-12 02:58:36.502420+00:00,Tasmania 2008,r20081011_231958_sisters_16_quadrep,52.5896356918834,1,NC,0.79089790897909,0.592280013084724,-42.9512179775,148.007055449,3.475,,,35.1848412698413,11.968,
1417088,2745927,PR_20081012_025836_502_LC16,2008-10-12 02:58:36.502420+00:00,Tasmania 2008,r20081011_231958_sisters_16_quadrep,52.5896356918834,1,NC,0.514341943419434,0.281779522407589,-42.9512179775,148.007055449,3.475,,,35.1848412698413,11.968,
1412573,2736827,PR_20081012_002655_253_LC16,2008-10-12 00:26:55.253637+00:00,Tasmania 2008,r20081011_231958_sisters_16_quadrep,73.6979047754873,1,NC,0.639328938305618,0.874852806489598,-42.9464780266,148.00564924,2.02,,,35.1902201257862,11.940679245283,
1416803,2745327,PR_20081012_024836_422_LC16,2008-10-12 02:48:36.422386+00:00,Tasmania 2008,r20081011_231958_sisters_16_quadrep,64.9016646120762,1,NC,0.573234932349324,0.764736669937848,-42.9498196297,148.007878765,2.058,,,35.1824901960784,11.9687058823529,
1411371,2734427,PR_20081011_234654_920_LC16,2008-10-11 23:46:54.921000+00:00,Tasmania 2008,r20081011_231958_sisters_16_quadrep,44.2499078223124,1,NC,0.446521696349503,0.863796938374984,-42.9545893144,148.005058357,2.147,,,35.1745625,11.9683125,
1417052,2745827,PR_20081012_025656_487_LC16,2008-10-12 02:56:56.487943+00:00,Tasmania 2008,r20081011_231958_sisters_16_quadrep,59.5532198302068,1,NC,0.753062730627306,0.215439973830553,-42.9512119822,148.007459076,1.94,,,35.1854680851064,11.9706382978723,
1408704,2665700,PR_20081010_043234_998_LC16,2008-10-10 04:32:34.998712+00:00,Tasmania 2008,r20081010_032919_ChevronRockS_14_transect,70.3423001360932,1,NC,0.187001869526715,0.386301190631951,-43.1193400702,148.040644758,2.522,,,35.1652,11.9825,
1407988,2644815,PR_20081010_040914_790_LC16,2008-10-10 04:09:14.790910+00:00,Tasmania 2008,r20081010_032919_ChevronRockS_14_transect,86.0669555977693,1,NC,0.238069467676867,0.98639277770509,-43.1201322851,148.039007203,2.03,,,35.1681368421053,11.9855894736842,
1416347,2744427,PR_20081012_023336_300_LC16,2008-10-12 02:33:36.300018+00:00,Tasmania 2008,r20081011_231958_sisters_16_quadrep,65.774084767916,1,NC,0.671160090524451,0.288303022373414,-42.948684977,148.005019712,2.143,,,35.1840833333333,11.96075,
1417291,2746327,PR_20081012_030516_558_LC16,2008-10-12 03:05:16.558481+00:00,Tasmania 2008,r20081011_231958_sisters_16_quadrep,53.6512636360549,1,NC,0.560787207872079,0.822244030094864,-42.9512643612,148.005086441,3.05,,,35.1803896713615,11.9501502347418,
1410173,2700488,PR_20081010_052055_417_LC16,2008-10-10 05:20:55.417970+00:00,Tasmania 2008,r20081010_032919_ChevronRockS_14_transect,43.0727097334802,1,NC,0.717996654531142,0.711239042260892,-43.121078883,148.044331579,2.15,,,35.15205,11.990375,
1414903,2741527,PR_20081012_014515_902_LC16,2008-10-12 01:45:15.902716+00:00,Tasmania 2008,r20081011_231958_sisters_16_quadrep,48.5502694384361,1,NC,0.305766013972252,0.313620306162502,-42.9507635962,148.006851997,2.1,,,35.1831506849315,11.9595753424658,
1409883,2695510,PR_20081010_051240_346_LC16,2008-10-10 05:12:40.346858+00:00,Tasmania 2008,r20081010_032919_ChevronRockS_14_transect,33.854424698815,1,NC,0.397176030699597,0.874460290461861,-43.1198452212,148.043815037,3.333,,,35.14412,11.97688,
1417990,2747727,PR_20081012_032836_747_LC16,2008-10-12 03:28:36.747143+00:00,Tasmania 2008,r20081011_231958_sisters_16_quadrep,51.239153210747,1,NC,0.691316113161132,0.958259731763166,-42.9537265,148.006952217,2.05,,,35.173661971831,11.9578309859155,
1412241,2736227,PR_20081012_001655_171_LC16,2008-10-12 00:16:55.171407+00:00,Tasmania 2008,r20081011_231958_sisters_16_quadrep,71.439030222128,1,NC,0.948538817278363,0.21588381525579,-42.9475000736,148.004754369,2.1,,,35.1864666666667,11.9324666666667,
1407935,2643315,PR_20081010_040734_779_LC16,2008-10-10 04:07:34.779603+00:00,Tasmania 2008,r20081010_032919_ChevronRockS_14_transect,83.4313756900942,1,NC,0.702843648528978,0.0921758471804265,-43.1199795212,148.039215952,3.185,,,35.169,11.9841818181818,
1408228,2650670,PR_20081010_041554_851_LC16,2008-10-10 04:15:54.851762+00:00,Tasmania 2008,r20081010_032919_ChevronRockS_14_transect,86.5224141406377,1,NC,0.335383252976483,0.0336909590474944,-43.120651476,148.039043032,2.12,,,35.1785,11.9835,
1416253,2744227,PR_20081012_023016_272_LC16,2008-10-12 02:30:16.272153+00:00,Tasmania 2008,r20081011_231958_sisters_16_quadrep,70.1038406331866,1,NC,0.558398110794057,0.665445505691482,-42.9486896691,148.00407642,2.09,,,35.1886666666667,11.9535833333333,
1413478,2738627,PR_20081012_005655_506_LC16,2008-10-12 00:56:55.506040+00:00,Tasmania 2008,r20081011_231958_sisters_16_quadrep,47.7483916983991,1,NC,0.407901210272557,0.299424309825985,-42.9528039174,148.005942118,2.478,,,35.1752,11.9642,
1412481,2736727,PR_20081012_002515_242_LC16,2008-10-12 00:25:15.242447+00:00,Tasmania 2008,r20081011_231958_sisters_16_quadrep,74.1354699946101,1,NC,0.782446128111778,0.221836975009813,-42.9461493044,148.005626743,2.04,,,35.1860460526316,11.9419539473684,
1417711,2747127,PR_20081012_031836_667_LC16,2008-10-12 03:18:36.667723+00:00,Tasmania 2008,r20081011_231958_sisters_16_quadrep,51.6790884717214,1,NC,0.414120541205412,0.512201504743212,-42.9534805678,148.004402929,2.138,,,35.1722,11.952,
1411953,2735627,PR_20081012_000655_088_LC16,2008-10-12 00:06:55.088987+00:00,Tasmania 2008,r20081011_231958_sisters_16_quadrep,60.1126414899577,1,NC,0.753173275607596,0.590998299097213,-42.9498517861,148.004829038,1.895,,,35.183,11.93975,
1410212,2701430,PR_20081010_052235_435_LC16,2008-10-10 05:22:35.435376+00:00,Tasmania 2008,r20081010_032919_ChevronRockS_14_transect,43.3000471187297,1,NC,0.176571878382367,0.981878843386105,-43.1210816762,148.04481211,2.08,,,35.1435909090909,11.9905757575758,
1411027,2715742,PR_20081010_054915_667_LC16,2008-10-10 05:49:15.667842+00:00,Tasmania 2008,r20081010_032919_ChevronRockS_14_transect,36.3148576348866,1,NC,0.925612515989373,0.217323040690828,-43.1200727213,148.044607067,1.855,,,35.1459904761905,11.9755428571429,
1410784,2712472,PR_20081010_054228_610_LC16,2008-10-10 05:42:28.610137+00:00,Tasmania 2008,r20081010_032919_ChevronRockS_14_transect,37.5529747179858,1,NC,0.23624913903375,0.636857255004579,-43.1192319434,148.045480965,2.45,,,35.1458674698795,11.9783614457831,
1417345,2746427,PR_20081012_030656_567_LC16,2008-10-12 03:06:56.567369+00:00,Tasmania 2008,r20081011_231958_sisters_16_quadrep,58.2178287857733,1,NC,0.565116851168512,0.813280994438992,-42.951275742,148.004522559,2.13,,,35.1825805946792,11.9485852895149,
1416124,2743927,PR_20081012_022516_230_LC16,2008-10-12 02:25:16.230495+00:00,Tasmania 2008,r20081011_231958_sisters_16_quadrep,72.9414876375515,1,NC,0.105677457443668,0.552662567054821,-42.9475526297,148.004022279,1.98,,,35.1880418410042,11.941269874477,
1408776,2667197,PR_20081010_043415_011_LC16,2008-10-10 04:34:15.011089+00:00,Tasmania 2008,r20081010_032919_ChevronRockS_14_transect,66.5869397897238,1,NC,0.600364065728623,0.345152427057438,-43.1195772764,148.040653515,2.743,,,35.1658181818182,11.981,
1416990,2745727,PR_20081012_025516_476_LC16,2008-10-12 02:55:16.476844+00:00,Tasmania 2008,r20081011_231958_sisters_16_quadrep,61.5604200070349,1,NC,0.222681426814268,0.341969250899575,-42.9512111538,148.007904298,2.06,,,35.187,11.9753333333333,
1407752,2637347,PR_20081010_040054_720_LC16,2008-10-10 04:00:54.720675+00:00,Tasmania 2008,r20081010_032919_ChevronRockS_14_transect,61.3421475092306,1,NC,0.0797008757256716,0.163613764228706,-43.1199622081,148.041173139,2.545,,,35.1565833333333,11.9828333333333,
1412488,2736727,PR_20081012_002515_242_LC16,2008-10-12 00:25:15.242447+00:00,Tasmania 2008,r20081011_231958_sisters_16_quadrep,74.1354699946101,1,NC,0.518695267145528,0.670155698024336,-42.9461493044,148.005626743,2.04,,,35.1860460526316,11.9419539473684,
1409177,2678832,PR_20081010_044732_131_LC16,2008-10-10 04:47:32.131359+00:00,Tasmania 2008,r20081010_032919_ChevronRockS_14_transect,50.4619630561818,1,NC,0.904309751057759,0.320293078634044,-43.1210889151,148.041919207,1.703,,,35.1520153846154,11.9841230769231,
1413019,2737727,PR_20081012_004155_381_LC16,2008-10-12 00:41:55.381356+00:00,Tasmania 2008,r20081011_231958_sisters_16_quadrep,58.5434147885771,1,NC,0.94465216963495,0.486131100353264,-42.9497089766,148.005786718,2.535,,,35.1865454545455,11.9415909090909,
1411467,2734627,PR_20081011_235014_949_LC16,2008-10-11 23:50:14.949020+00:00,Tasmania 2008,r20081011_231958_sisters_16_quadrep,48.360033741087,1,NC,0.576847387582407,0.956626978934973,-42.9538398806,148.005031743,2.192,,,35.1788965517241,11.966,
1407310,2623919,PR_20081010_034234_558_LC16,2008-10-10 03:42:34.558423+00:00,Tasmania 2008,r20081010_032919_ChevronRockS_14_transect,37.8421475550104,1,NC,0.621962019088852,0.398665445505691,-43.1199100608,148.045354698,1.84,,,35.1425032679739,11.9859869281046,
1413758,2739227,PR_20081012_010655_583_LC16,2008-10-12 01:06:55.583914+00:00,Tasmania 2008,r20081011_231958_sisters_16_quadrep,44.4280134077357,1,NC,0.0088556528584079,0.101203715818396,-42.9548577332,148.006034986,2.0,,,35.1777736486487,11.9770878378378,
1410632,2710134,PR_20081010_053735_568_LC16,2008-10-10 05:37:35.568202+00:00,Tasmania 2008,r20081010_032919_ChevronRockS_14_transect,33.7721701159136,1,NC,0.0811768178687396,0.7128745257098,-43.1193764971,148.045450977,1.62,,,35.1455106382979,11.9776241134752,
1409837,2694453,PR_20081010_051055_335_LC16,2008-10-10 05:10:55.335366+00:00,Tasmania 2008,r20081010_032919_ChevronRockS_14_transect,39.461680847729,1,NC,0.907753616058251,0.0681669501504645,-43.1195952054,148.043797772,2.485,,,35.1461785714286,11.9788214285714,
1418042,2747827,PR_20081012_033016_763_LC16,2008-10-12 03:30:16.763474+00:00,Tasmania 2008,r20081011_231958_sisters_16_quadrep,51.7561775621357,1,NC,0.98760147601476,0.484658161596336,-42.95372417,148.007434689,2.243,,,35.1729577464789,11.9574788732394,
1415099,2741927,PR_20081012_015155_959_LC16,2008-10-12 01:51:55.959571+00:00,Tasmania 2008,r20081011_231958_sisters_16_quadrep,63.6470822926037,1,NC,0.0681885270097412,0.421300536438571,-42.9492625013,148.00680274,2.058,,,35.1839058823529,11.9459058823529,
1408743,2667197,PR_20081010_043415_011_LC16,2008-10-10 04:34:15.011089+00:00,Tasmania 2008,r20081010_032919_ChevronRockS_14_transect,66.5869397897238,1,NC,0.650841287021549,0.62429674211697,-43.1195772764,148.040653515,2.743,,,35.1658181818182,11.981,
1411079,2733927,PR_20081011_233834_846_LC16,2008-10-11 23:38:34.846842+00:00,Tasmania 2008,r20081011_231958_sisters_16_quadrep,40.8268028445311,1,NC,0.0296664370756666,0.549914954860657,-42.9563617186,148.005118952,2.145,,,35.1736111111111,11.982,
1412905,2737527,PR_20081012_003835_353_LC16,2008-10-12 00:38:35.353841+00:00,Tasmania 2008,r20081011_231958_sisters_16_quadrep,53.2090771204258,1,NC,0.811522188330217,0.942300143922543,-42.9489512785,148.005744869,2.167,,,35.176,11.934,
1408320,2653667,PR_20081010_041914_881_LC16,2008-10-10 04:19:14.881938+00:00,Tasmania 2008,r20081010_032919_ChevronRockS_14_transect,86.8431671658737,1,NC,0.310095444258585,0.0123642548737407,-43.1198547763,148.039038859,2.04,,,35.177347826087,11.9886086956522,
1409055,2676399,PR_20081010_044420_102_LC16,2008-10-10 04:44:20.102881+00:00,Tasmania 2008,r20081010_032919_ChevronRockS_14_transect,59.9719503950565,1,NC,0.120289284660041,0.495420646343059,-43.1210928614,148.041089481,3.39,,,35.1564,11.9876,
1410002,2697434,PR_20081010_051555_376_LC16,2008-10-10 05:15:55.376414+00:00,Tasmania 2008,r20081010_032919_ChevronRockS_14_transect,36.9576571769873,1,NC,0.949867165207124,0.156613895067382,-43.1203989535,148.043842928,2.04,,,35.1525641025641,11.977811965812,
1414730,2741227,PR_20081012_014015_860_LC16,2008-10-12 01:40:15.860021+00:00,Tasmania 2008,r20081011_231958_sisters_16_quadrep,53.1792930801378,1,NC,0.163977172094854,0.637249771032317,-42.9518002399,148.006891245,1.847,,,35.181,11.9683333333333,
1410007,2697434,PR_20081010_051555_376_LC16,2008-10-10 05:15:55.376414+00:00,Tasmania 2008,r20081010_032919_ChevronRockS_14_transect,36.9576571769873,1,NC,0.723260848174752,0.49522438832919,-43.1203989535,148.043842928,2.04,,,35.1525641025641,11.977811965812,
1407702,2636046,PR_20081010_035914_705_LC16,2008-10-10 03:59:14.705616+00:00,Tasmania 2008,r20081010_032919_ChevronRockS_14_transect,58.2602616545768,1,NC,0.856686017908098,0.251144838414235,-43.1199584196,148.041642104,2.613,,,35.1551,11.983,
1408129,2649206,PR_20081010_041414_833_LC16,2008-10-10 04:14:14.833978+00:00,Tasmania 2008,r20081010_032919_ChevronRockS_14_transect,87.4737723876431,1,NC,0.846502017120929,0.797069213659558,-43.1210467171,148.039051586,1.772,,,35.1705,11.993,
1413426,2738527,PR_20081012_005515_492_LC16,2008-10-12 00:55:15.492186+00:00,Tasmania 2008,r20081011_231958_sisters_16_quadrep,48.5590696585394,1,NC,0.0407360031486766,0.129661127829386,-42.9524688868,148.005925181,2.077,,,35.1778571428571,11.9594285714286,
1412505,2736727,PR_20081012_002515_242_LC16,2008-10-12 00:25:15.242447+00:00,Tasmania 2008,r20081011_231958_sisters_16_quadrep,74.1354699946101,1,NC,0.98725769949818,0.17362292293602,-42.9461493044,148.005626743,2.04,,,35.1860460526316,11.9419539473684,
1415801,2743327,PR_20081012_021516_145_LC16,2008-10-12 02:15:16.145831+00:00,Tasmania 2008,r20081011_231958_sisters_16_quadrep,74.1278234216939,1,NC,0.266358358752337,0.295957084914301,-42.9461655612,148.005288462,1.97,,,35.18883984375,11.93617578125,
1415485,2742727,PR_20081012_020516_066_LC16,2008-10-12 02:05:16.066924+00:00,Tasmania 2008,r20081011_231958_sisters_16_quadrep,73.8712972556123,1,NC,0.749335826035619,0.946748658903572,-42.9461246783,148.006856641,2.02,,,35.1936451612903,11.9394731182796,
1418382,2748527,PR_20081012_034156_856_LC16,2008-10-12 03:41:56.856021+00:00,Tasmania 2008,r20081011_231958_sisters_16_quadrep,44.4764410129664,1,NC,0.375891758917589,0.544520771998692,-42.9561030966,148.008269832,2.04,,,35.163,12.0005,
1414782,2741327,PR_20081012_014155_877_LC16,2008-10-12 01:41:55.877462+00:00,Tasmania 2008,r20081011_231958_sisters_16_quadrep,49.3335636364243,1,NC,0.618911738659845,0.0233547036503991,-42.9514683286,148.00687676,2.223,,,35.1842542372881,11.9617457627119,
1417618,2746927,PR_20081012_031516_640_LC16,2008-10-12 03:15:16.640390+00:00,Tasmania 2008,r20081011_231958_sisters_16_quadrep,53.8175718931985,1,NC,0.278277982779828,0.198560680405626,-42.9528200982,148.004362016,2.22,,,35.177313559322,11.9554576271186,
1418481,2748727,PR_20081012_034516_886_LC16,2008-10-12 03:45:16.886048+00:00,Tasmania 2008,r20081011_231958_sisters_16_quadrep,43.4749711813884,1,NC,0.483936039360394,0.250507033038927,-42.9562084203,148.007342585,2.03,,,35.163,12.0715,
1409269,2681257,PR_20081010_045055_160_LC16,2008-10-10 04:50:55.160970+00:00,Tasmania 2008,r20081010_032919_ChevronRockS_14_transect,56.1867452259361,1,NC,0.297156351471022,0.551157922281826,-43.120669829,148.04223514,2.467,,,35.15485,11.9793833333333,
1409279,2682552,PR_20081010_045235_175_LC16,2008-10-10 04:52:35.175096+00:00,Tasmania 2008,r20081010_032919_ChevronRockS_14_transect,48.7646614044605,1,NC,0.785201220112172,0.274237864712809,-43.1203979098,148.042234489,2.003,,,35.1535227272727,11.9813522727273,
1416597,2744927,PR_20081012_024156_365_LC16,2008-10-12 02:41:56.365523+00:00,Tasmania 2008,r20081011_231958_sisters_16_quadrep,66.2324887374716,1,NC,0.199950799507995,0.450637880274779,-42.9487341667,148.007353603,2.9,,,35.1883703703704,11.9605925925926,
1414579,2740927,PR_20081012_013515_820_LC16,2008-10-12 01:35:15.820697+00:00,Tasmania 2008,r20081011_231958_sisters_16_quadrep,51.6045448977627,1,NC,0.879513923054216,0.688669370665969,-42.9528833202,148.006941597,2.018,,,35.1792727272727,11.9802727272727,
1412921,2737527,PR_20081012_003835_353_LC16,2008-10-12 00:38:35.353841+00:00,Tasmania 2008,r20081011_231958_sisters_16_quadrep,53.2090771204258,1,NC,0.687297057955328,0.805312050242052,-42.9489512785,148.005744869,2.167,,,35.176,11.934,
1414273,2740227,PR_20081012_012335_722_LC16,2008-10-12 01:23:35.722411+00:00,Tasmania 2008,r20081011_231958_sisters_16_quadrep,44.8386001635312,1,NC,0.108530945586933,0.177744341227267,-42.9555869204,148.007053078,2.01,,,35.1772348484849,11.9765303030303,
1417075,2745827,PR_20081012_025656_487_LC16,2008-10-12 02:56:56.487943+00:00,Tasmania 2008,r20081011_231958_sisters_16_quadrep,59.5532198302068,1,NC,0.364132841328413,0.509780830879948,-42.9512119822,148.007459076,1.94,,,35.1854680851064,11.9706382978723,
1413484,2738727,PR_20081012_005835_516_LC16,2008-10-12 00:58:35.516044+00:00,Tasmania 2008,r20081011_231958_sisters_16_quadrep,43.6581117793928,1,NC,0.424480960346354,0.803807405469057,-42.9531097902,148.005957294,2.665,,,35.174275862069,11.963275862069,
1414948,2741618,PR_20081012_014646_915_LC16,2008-10-12 01:46:46.915073+00:00,Tasmania 2008,r20081011_231958_sisters_16_quadrep,55.5544349352008,1,NC,0.0167281672816728,0.381877657834478,-42.9503967232,148.006843737,3.118,,,35.1814285714286,11.9507857142857,
1412019,2735727,PR_20081012_000835_099_LC16,2008-10-12 00:08:35.099551+00:00,Tasmania 2008,r20081011_231958_sisters_16_quadrep,61.2675594176525,1,NC,0.127668995375381,0.212743687033887,-42.9494727686,148.004809827,1.98,,,35.18163,11.93684,
1413929,2739627,PR_20081012_011335_643_LC16,2008-10-12 01:13:35.643027+00:00,Tasmania 2008,r20081011_231958_sisters_16_quadrep,41.7387245397406,1,NC,0.225474761389354,0.298115923066859,-42.9565179612,148.006143189,1.97,,,35.1751620111732,11.9881620111732,
1418405,2748527,PR_20081012_034156_856_LC16,2008-10-12 03:41:56.856021+00:00,Tasmania 2008,r20081011_231958_sisters_16_quadrep,44.4764410129664,1,NC,0.788191881918819,0.398560680405626,-42.9561030966,148.008269832,2.04,,,35.163,12.0005,
1411704,2735127,PR_20081011_235835_017_LC16,2008-10-11 23:58:35.017528+00:00,Tasmania 2008,r20081011_231958_sisters_16_quadrep,55.8352906419933,1,NC,0.365689264980813,0.608661520345414,-42.9518795029,148.004928766,1.695,,,35.1795714285714,11.9524285714286,
1412122,2735927,PR_20081012_001155_130_LC16,2008-10-12 00:11:55.130958+00:00,Tasmania 2008,r20081011_231958_sisters_16_quadrep,66.8171122256469,1,NC,0.86750959362393,0.264752060709146,-42.9486656118,148.004782303,2.23,,,35.1845384615385,11.9335384615385,
1412729,2737227,PR_20081012_003335_308_LC16,2008-10-12 00:33:35.308228+00:00,Tasmania 2008,r20081011_231958_sisters_16_quadrep,64.0806644840705,1,NC,0.878431565482633,0.440272144445898,-42.9479836666,148.005704795,1.71,,,35.1814,11.932,
1415406,2742527,PR_20081012_020156_036_LC16,2008-10-12 02:01:56.036919+00:00,Tasmania 2008,r20081011_231958_sisters_16_quadrep,72.8124581393675,1,NC,0.0445734527206533,0.638623577129399,-42.9467851034,148.006742554,2.04,,,35.1875028248588,11.9384858757062,
1412294,2736327,PR_20081012_001835_185_LC16,2008-10-12 00:18:35.185431+00:00,Tasmania 2008,r20081011_231958_sisters_16_quadrep,72.7845841816,1,NC,0.250664173964381,0.604867198743949,-42.9470713844,148.004746203,2.02,,,35.186,11.9349393939394,
1409369,2683766,PR_20081010_045415_187_LC16,2008-10-10 04:54:15.187440+00:00,Tasmania 2008,r20081010_032919_ChevronRockS_14_transect,54.7421576865826,1,NC,0.12801338187543,0.472262200706529,-43.1200285887,148.042232693,3.185,,,35.1546814159292,11.9889557522124,
1414996,2741727,PR_20081012_014835_932_LC16,2008-10-12 01:48:35.932303+00:00,Tasmania 2008,r20081011_231958_sisters_16_quadrep,57.2923144044744,1,NC,0.717406277673915,0.673753761611932,-42.950012453,148.006833783,2.665,,,35.1848095238095,11.9494013605442,
1410780,2712472,PR_20081010_054228_610_LC16,2008-10-10 05:42:28.610137+00:00,Tasmania 2008,r20081010_032919_ChevronRockS_14_transect,37.5529747179858,1,NC,0.426399685132343,0.38047886955384,-43.1192319434,148.045480965,2.45,,,35.1458674698795,11.9783614457831,
1413438,2738627,PR_20081012_005655_506_LC16,2008-10-12 00:56:55.506040+00:00,Tasmania 2008,r20081011_231958_sisters_16_quadrep,47.7483916983991,1,NC,0.0866870018695267,0.269527672379956,-42.9528039174,148.005942118,2.478,,,35.1752,11.9642,
1410616,2709298,PR_20081010_053551_549_LC16,2008-10-10 05:35:51.549628+00:00,Tasmania 2008,r20081010_032919_ChevronRockS_14_transect,31.3898505532614,1,NC,0.914149365344878,0.568494046840246,-43.1196694971,148.045440369,1.36,,,35.144,11.9767142857143,
1415591,2742927,PR_20081012_020836_095_LC16,2008-10-12 02:08:36.095968+00:00,Tasmania 2008,r20081011_231958_sisters_16_quadrep,73.6060481044468,1,NC,0.386746039555249,0.707313881983514,-42.9461199399,148.007501587,2.1,,,35.19274609375,11.94164453125,
1417267,2746227,PR_20081012_030336_544_LC16,2008-10-12 03:03:36.544881+00:00,Tasmania 2008,r20081011_231958_sisters_16_quadrep,54.0470821307594,1,NC,0.398868388683887,0.101929996728819,-42.9512569818,148.005589831,2.072,,,35.1781987480438,11.9517151799687,
1411743,2735227,PR_20081012_000015_030_LC16,2008-10-12 00:00:15.030547+00:00,Tasmania 2008,r20081011_231958_sisters_16_quadrep,56.8312394016503,1,NC,0.586932992226705,0.791116053905535,-42.9514693225,148.004910887,1.945,,,35.181,11.9441904761905,
1418248,2748227,PR_20081012_033656_813_LC16,2008-10-12 03:36:56.813175+00:00,Tasmania 2008,r20081011_231958_sisters_16_quadrep,48.9395439760702,1,NC,0.789274292742927,0.288321884200196,-42.9548352321,148.008185775,2.0,,,35.169,11.9614782608696,
1413250,2738227,PR_20081012_005015_448_LC16,2008-10-12 00:50:15.448293+00:00,Tasmania 2008,r20081011_231958_sisters_16_quadrep,52.6553324850333,1,NC,0.563514710223359,0.789153473766846,-42.9514284089,148.005869076,2.163,,,35.1777407407407,11.948,
1407506,2628593,PR_20081010_034904_613_LC16,2008-10-10 03:49:04.613379+00:00,Tasmania 2008,r20081010_032919_ChevronRockS_14_transect,34.7926404560041,1,NC,0.421184689560169,0.839657202669109,-43.1199232956,148.043776798,2.323,,,35.1413235294118,11.9859411764706,
1410626,2709298,PR_20081010_053551_549_LC16,2008-10-10 05:35:51.549628+00:00,Tasmania 2008,r20081010_032919_ChevronRockS_14_transect,31.3898505532614,1,NC,0.759126242251304,0.284639539447861,-43.1196694971,148.045440369,1.36,,,35.144,11.9767142857143,
1410153,2700488,PR_20081010_052055_417_LC16,2008-10-10 05:20:55.417970+00:00,Tasmania 2008,r20081010_032919_ChevronRockS_14_transect,43.0727097334802,1,NC,0.965315359637902,0.625081774172445,-43.121078883,148.044331579,2.15,,,35.15205,11.990375,
1407889,2641791,PR_20081010_040554_761_LC16,2008-10-10 04:05:54.761426+00:00,Tasmania 2008,r20081010_032919_ChevronRockS_14_transect,74.175371538023,1,NC,0.463495030994785,0.998953222113183,-43.1199709667,148.039760871,5.845,,,35.1656470588235,11.983,
1409217,2680057,PR_20081010_044915_146_LC16,2008-10-10 04:49:15.146464+00:00,Tasmania 2008,r20081010_032919_ChevronRockS_14_transect,55.3040984548307,1,NC,0.466742103709535,0.335797461729687,-43.1210106825,148.04223596,2.288,,,35.1551333333333,11.9892444444444,
1408718,2665700,PR_20081010_043234_998_LC16,2008-10-10 04:32:34.998712+00:00,Tasmania 2008,r20081010_032919_ChevronRockS_14_transect,70.3423001360932,1,NC,0.147102233592443,0.300274761219416,-43.1193400702,148.040644758,2.522,,,35.1652,11.9825,
1416953,2745627,PR_20081012_025336_462_LC16,2008-10-12 02:53:36.462193+00:00,Tasmania 2008,r20081011_231958_sisters_16_quadrep,61.8991117923694,1,NC,0.748683886838868,0.543343146876022,-42.9508998757,148.007913661,2.14,,,35.1830871559633,11.9736376146789,
1410823,2712472,PR_20081010_054228_610_LC16,2008-10-10 05:42:28.610137+00:00,Tasmania 2008,r20081010_032919_ChevronRockS_14_transect,37.5529747179858,1,NC,0.891567450555938,0.266649221509878,-43.1192319434,148.045480965,2.45,,,35.1458674698795,11.9783614457831,
1416144,2744027,PR_20081012_022656_241_LC16,2008-10-12 02:26:56.241960+00:00,Tasmania 2008,r20081011_231958_sisters_16_quadrep,69.8770862753992,1,NC,0.452769851421824,0.964477299489729,-42.947926733,148.004038936,2.138,,,35.1876234309623,11.9435711297071,
1413452,2738627,PR_20081012_005655_506_LC16,2008-10-12 00:56:55.506040+00:00,Tasmania 2008,r20081011_231958_sisters_16_quadrep,47.7483916983991,1,NC,0.638394174948342,0.949038335732042,-42.9528039174,148.005942118,2.478,,,35.1752,11.9642,
1417678,2747027,PR_20081012_031656_649_LC16,2008-10-12 03:16:56.649514+00:00,Tasmania 2008,r20081011_231958_sisters_16_quadrep,52.4009933384061,1,NC,0.754883148831488,0.217337258750409,-42.9531445495,148.004380491,2.255,,,35.1748793103448,11.9561206896552,
1413606,2738912,PR_20081012_010140_542_LC16,2008-10-12 01:01:40.542889+00:00,Tasmania 2008,r20081011_231958_sisters_16_quadrep,41.4594771496732,1,NC,0.927921279212792,0.818384036637226,-42.9537213046,148.005982843,1.905,,,35.1743943661972,11.9731126760563,
1418060,2747827,PR_20081012_033016_763_LC16,2008-10-12 03:30:16.763474+00:00,Tasmania 2008,r20081011_231958_sisters_16_quadrep,51.7561775621357,1,NC,0.245510455104551,0.975793261367354,-42.95372417,148.007434689,2.243,,,35.1729577464789,11.9574788732394,
1418393,2748527,PR_20081012_034156_856_LC16,2008-10-12 03:41:56.856021+00:00,Tasmania 2008,r20081011_231958_sisters_16_quadrep,44.4764410129664,1,NC,0.257908979089791,0.635328753680078,-42.9561030966,148.008269832,2.04,,,35.163,12.0005,
1412807,2737327,PR_20081012_003515_323_LC16,2008-10-12 00:35:15.323206+00:00,Tasmania 2008,r20081011_231958_sisters_16_quadrep,63.9278050633414,1,NC,0.738118665748303,0.77528457412011,-42.9483636541,148.005716701,2.93,,,35.1854,11.9326,
1412620,2736927,PR_20081012_002835_267_LC16,2008-10-12 00:28:35.267784+00:00,Tasmania 2008,r20081011_231958_sisters_16_quadrep,72.8470681768702,1,NC,0.946964478992424,0.124558419468795,-42.9468798365,148.005664834,1.99,,,35.190534591195,11.9387924528302,
1408594,2662787,PR_20081010_042914_967_LC16,2008-10-10 04:29:14.967358+00:00,Tasmania 2008,r20081010_032919_ChevronRockS_14_transect,75.704301997626,1,NC,0.398159992128309,0.921954729818134,-43.1188501328,148.040530329,2.06,,,35.1676666666667,11.982,
1410243,2702463,PR_20081010_052415_451_LC16,2008-10-10 05:24:15.451691+00:00,Tasmania 2008,r20081010_032919_ChevronRockS_14_transect,44.7482967940766,1,NC,0.876758831053823,0.673034148894413,-43.1210800716,148.045257464,2.03,,,35.1508235294118,11.9918970588235,
1412208,2736127,PR_20081012_001515_154_LC16,2008-10-12 00:15:15.154433+00:00,Tasmania 2008,r20081011_231958_sisters_16_quadrep,66.883235804233,1,NC,0.342812161763259,0.317872563129661,-42.9478920076,148.004758338,2.807,,,35.1862777777778,11.9310555555556,
1415237,2742227,PR_20081012_015655_997_LC16,2008-10-12 01:56:55.997940+00:00,Tasmania 2008,r20081011_231958_sisters_16_quadrep,71.0857448602753,1,NC,0.993899439141986,0.721771555671857,-42.9480240671,148.006765013,2.0,,,35.1863728813559,11.9441355932203,
1412515,2736727,PR_20081012_002515_242_LC16,2008-10-12 00:25:15.242447+00:00,Tasmania 2008,r20081011_231958_sisters_16_quadrep,74.1354699946101,1,NC,0.182229656597461,0.961860525971477,-42.9461493044,148.005626743,2.04,,,35.1860460526316,11.9419539473684,
1413486,2738727,PR_20081012_005835_516_LC16,2008-10-12 00:58:35.516044+00:00,Tasmania 2008,r20081011_231958_sisters_16_quadrep,43.6581117793928,1,NC,0.674210370953459,0.25212612848358,-42.9531097902,148.005957294,2.665,,,35.174275862069,11.963275862069,
1409717,2691476,PR_20081010_050555_289_LC16,2008-10-10 05:05:55.289896+00:00,Tasmania 2008,r20081010_032919_ChevronRockS_14_transect,50.7393815790051,1,NC,0.108481747515497,0.231388198351433,-43.1188287323,148.043797323,2.633,,,35.1520769230769,11.9789615384615,
1411821,2735327,PR_20081012_000155_047_LC16,2008-10-12 00:01:55.047177+00:00,Tasmania 2008,r20081011_231958_sisters_16_quadrep,58.1175504243318,1,NC,0.709436190101348,0.472327620044485,-42.9510409595,148.004891772,2.15,,,35.1806785714286,11.9413214285714,
1412962,2737627,PR_20081012_004015_364_LC16,2008-10-12 00:40:15.364032+00:00,Tasmania 2008,r20081011_231958_sisters_16_quadrep,54.0849499220498,1,NC,0.0652366427236052,0.515896899123381,-42.9493115654,148.005766025,2.08,,,35.1808620689655,11.9419310344828,
1410345,2704368,PR_20081010_052725_479_LC16,2008-10-10 05:27:25.479743+00:00,Tasmania 2008,r20081010_032919_ChevronRockS_14_transect,43.9813311976214,1,NC,0.158958968808423,0.422608923197697,-43.1207660524,148.045428389,2.573,,,35.150708984375,11.9931171875,
1411084,2733927,PR_20081011_233834_846_LC16,2008-10-11 23:38:34.846842+00:00,Tasmania 2008,r20081011_231958_sisters_16_quadrep,40.8268028445311,1,NC,0.319787464331398,0.644903833573204,-42.9563617186,148.005118952,2.145,,,35.1736111111111,11.982,
1415905,2743527,PR_20081012_021836_177_LC16,2008-10-12 02:18:36.177806+00:00,Tasmania 2008,r20081011_231958_sisters_16_quadrep,74.314839900379,1,NC,0.392010233198859,0.0888394609446552,-42.9461774299,148.004203519,2.01,,,35.192011627907,11.9370058139535,
1413093,2737913,PR_20081012_004501_407_LC16,2008-10-12 00:45:01.407265+00:00,Tasmania 2008,r20081011_231958_sisters_16_quadrep,54.8450326446836,1,NC,0.601180811808118,0.866928361138371,-42.9503249453,148.005817829,2.803,,,35.177,11.942696969697,
1412401,2736527,PR_20081012_002155_210_LC16,2008-10-12 00:21:55.210068+00:00,Tasmania 2008,r20081011_231958_sisters_16_quadrep,74.1512510020249,1,NC,0.0885073305126439,0.0256443804788696,-42.9462196657,148.004725274,2.03,,,35.187686746988,11.938,
1409109,2677862,PR_20081010_044611_117_LC16,2008-10-10 04:46:11.117359+00:00,Tasmania 2008,r20081010_032919_ChevronRockS_14_transect,49.8111802624073,1,NC,0.123339565089049,0.128418160408217,-43.1210957231,148.041522414,3.195,,,35.1518181818182,11.9802727272727,
1415421,2742527,PR_20081012_020156_036_LC16,2008-10-12 02:01:56.036919+00:00,Tasmania 2008,r20081011_231958_sisters_16_quadrep,72.8124581393675,1,NC,0.946718488635246,0.0427188276854638,-42.9467851034,148.006742554,2.04,,,35.1875028248588,11.9384858757062,
1416241,2744227,PR_20081012_023016_272_LC16,2008-10-12 02:30:16.272153+00:00,Tasmania 2008,r20081011_231958_sisters_16_quadrep,70.1038406331866,1,NC,0.122453999803208,0.840442234724585,-42.9486896691,148.00407642,2.09,,,35.1886666666667,11.9535833333333,
1408789,2668790,PR_20081010_043555_028_LC16,2008-10-10 04:35:55.028862+00:00,Tasmania 2008,r20081010_032919_ChevronRockS_14_transect,66.5081921033742,1,NC,0.389255141198465,0.300274761219416,-43.119895435,148.040665438,1.845,,,35.1603698630137,11.987,
1416311,2744327,PR_20081012_023156_281_LC16,2008-10-12 02:31:56.281859+00:00,Tasmania 2008,r20081011_231958_sisters_16_quadrep,67.7835995115953,1,NC,0.777083538325298,0.300078503205548,-42.9486836887,148.004550571,2.177,,,35.183,11.9555,
1408567,2661218,PR_20081010_042734_957_LC16,2008-10-10 04:27:34.957091+00:00,Tasmania 2008,r20081010_032919_ChevronRockS_14_transect,78.1546023388487,1,NC,0.853094558693299,0.607287714248332,-43.1188541943,148.040050849,2.05,,,35.1621666666667,11.9863333333333,
1418525,2748727,PR_20081012_034516_886_LC16,2008-10-12 03:45:16.886048+00:00,Tasmania 2008,r20081011_231958_sisters_16_quadrep,43.4749711813884,1,NC,0.286642066420664,0.430945371279032,-42.9562084203,148.007342585,2.03,,,35.163,12.0715,
1417259,2746227,PR_20081012_030336_544_LC16,2008-10-12 03:03:36.544881+00:00,Tasmania 2008,r20081011_231958_sisters_16_quadrep,54.0470821307594,1,NC,0.971709717097171,0.283807654563297,-42.9512569818,148.005589831,2.072,,,35.1781987480438,11.9517151799687,
1415671,2743027,PR_20081012_021016_104_LC16,2008-10-12 02:10:16.104789+00:00,Tasmania 2008,r20081011_231958_sisters_16_quadrep,73.5537496406235,1,NC,0.313736101544819,0.637969383749836,-42.946131687,148.006958423,2.16,,,35.19176953125,11.94027734375,
1409015,2674914,PR_20081010_044235_088_LC16,2008-10-10 04:42:35.088329+00:00,Tasmania 2008,r20081010_032919_ChevronRockS_14_transect,62.2692453270037,1,NC,0.876512840696645,0.540298312181081,-43.1210447243,148.04070937,1.877,,,35.1556037735849,11.9830188679245,
1418626,2748927,PR_20081012_034836_910_LC16,2008-10-12 03:48:36.910802+00:00,Tasmania 2008,r20081011_231958_sisters_16_quadrep,42.2492269602809,1,NC,0.109372693726937,0.503369316323193,-42.9562422868,148.006123432,2.04,,,35.1624615384615,12.0722307692308,
1408344,2655170,PR_20081010_042054_896_LC16,2008-10-10 04:20:54.896353+00:00,Tasmania 2008,r20081010_032919_ChevronRockS_14_transect,85.5615167275556,1,NC,0.313932893830562,0.249313096951459,-43.1194751199,148.039044903,2.02,,,35.1687692307692,11.9895384615385,
1418655,2749027,PR_20081012_035016_922_LC16,2008-10-12 03:50:16.922668+00:00,Tasmania 2008,r20081011_231958_sisters_16_quadrep,41.7757838545867,1,NC,0.358671586715867,0.958456002616945,-42.9562557142,148.005590242,2.18,,,35.1656785714286,12.0614642857143,
1407587,2631680,PR_20081010_035317_649_LC16,2008-10-10 03:53:17.649982+00:00,Tasmania 2008,r20081010_032919_ChevronRockS_14_transect,42.1578669517118,1,NC,0.205549542457936,0.6884731126521,-43.1199400807,148.042905878,2.29,,,35.1474285714286,11.9822857142857,
1418628,2748927,PR_20081012_034836_910_LC16,2008-10-12 03:48:36.910802+00:00,Tasmania 2008,r20081011_231958_sisters_16_quadrep,42.2492269602809,1,NC,0.165756457564576,0.286817140987897,-42.9562422868,148.006123432,2.04,,,35.1624615384615,12.0722307692308,
1413015,2737727,PR_20081012_004155_381_LC16,2008-10-12 00:41:55.381356+00:00,Tasmania 2008,r20081011_231958_sisters_16_quadrep,58.5434147885771,1,NC,0.816245203188035,0.269135156352218,-42.9497089766,148.005786718,2.535,,,35.1865454545455,11.9415909090909,
1412261,2736227,PR_20081012_001655_171_LC16,2008-10-12 00:16:55.171407+00:00,Tasmania 2008,r20081011_231958_sisters_16_quadrep,71.439030222128,1,NC,0.308865492472695,0.123250032709669,-42.9475000736,148.004754369,2.1,,,35.1864666666667,11.9324666666667,
1410432,2706474,PR_20081010_053055_506_LC16,2008-10-10 05:30:55.506549+00:00,Tasmania 2008,r20081010_032919_ChevronRockS_14_transect,40.4335119698016,1,NC,0.868591951195513,0.0162894151511187,-43.1203655648,148.045431103,1.5,,,35.153580078125,11.9849140625,
1418456,2748627,PR_20081012_034336_872_LC16,2008-10-12 03:43:36.872483+00:00,Tasmania 2008,r20081011_231958_sisters_16_quadrep,43.9918967373284,1,NC,0.85820418204182,0.127903173045469,-42.9562009433,148.007926211,1.97,,,35.1646666666667,12.0563333333333,
1411806,2735327,PR_20081012_000155_047_LC16,2008-10-12 00:01:55.047177+00:00,Tasmania 2008,r20081011_231958_sisters_16_quadrep,58.1175504243318,1,NC,0.533011905933287,0.19802433599372,-42.9510409595,148.004891772,2.15,,,35.1806785714286,11.9413214285714,
1418134,2748027,PR_20081012_033336_785_LC16,2008-10-12 03:33:36.785896+00:00,Tasmania 2008,r20081011_231958_sisters_16_quadrep,51.9672155774366,1,NC,0.437589175891759,0.0585541380438338,-42.9539599937,148.008135348,2.02,,,35.172,11.9562934782609,
1410596,2709298,PR_20081010_053551_549_LC16,2008-10-10 05:35:51.549628+00:00,Tasmania 2008,r20081010_032919_ChevronRockS_14_transect,31.3898505532614,1,NC,0.995768965856538,0.97029962056784,-43.1196694971,148.045440369,1.36,,,35.144,11.9767142857143,
1414330,2740427,PR_20081012_012655_753_LC16,2008-10-12 01:26:55.753177+00:00,Tasmania 2008,r20081011_231958_sisters_16_quadrep,47.2827050962741,1,NC,0.773984059824855,0.184613371712678,-42.9547056808,148.007009961,2.07,,,35.1785376344086,11.9744623655914,
1411451,2734627,PR_20081011_235014_949_LC16,2008-10-11 23:50:14.949020+00:00,Tasmania 2008,r20081011_231958_sisters_16_quadrep,48.360033741087,1,NC,0.507970087572567,0.495616904356928,-42.9538398806,148.005031743,2.192,,,35.1788965517241,11.966,
1412725,2737127,PR_20081012_003155_293_LC16,2008-10-12 00:31:55.293493+00:00,Tasmania 2008,r20081011_231958_sisters_16_quadrep,70.0018502128839,1,NC,0.428908786775558,0.718108072746304,-42.9476740486,148.005693529,2.583,,,35.18575,11.935625,
1417332,2746427,PR_20081012_030656_567_LC16,2008-10-12 03:06:56.567369+00:00,Tasmania 2008,r20081011_231958_sisters_16_quadrep,58.2178287857733,1,NC,0.952078720787208,0.695649329407916,-42.951275742,148.004522559,2.13,,,35.1825805946792,11.9485852895149,
1416790,2745327,PR_20081012_024836_422_LC16,2008-10-12 02:48:36.422386+00:00,Tasmania 2008,r20081011_231958_sisters_16_quadrep,64.9016646120762,1,NC,0.694514145141451,0.645142296368989,-42.9498196297,148.007878765,2.058,,,35.1824901960784,11.9687058823529,
1407383,2626278,PR_20081010_034554_587_LC16,2008-10-10 03:45:54.587891+00:00,Tasmania 2008,r20081010_032919_ChevronRockS_14_transect,36.6411093082493,1,NC,0.473088654924727,0.413973570587466,-43.1199134714,148.044597955,2.708,,,35.1448961038961,11.9842077922078,
1414928,2741527,PR_20081012_014515_902_LC16,2008-10-12 01:45:15.902716+00:00,Tasmania 2008,r20081011_231958_sisters_16_quadrep,48.5502694384361,1,NC,0.80187936632884,0.893693575821013,-42.9507635962,148.006851997,2.1,,,35.1831506849315,11.9595753424658,
1418489,2748727,PR_20081012_034516_886_LC16,2008-10-12 03:45:16.886048+00:00,Tasmania 2008,r20081011_231958_sisters_16_quadrep,43.4749711813884,1,NC,0.852841328413284,0.265685312397776,-42.9562084203,148.007342585,2.03,,,35.163,12.0715,
1414236,2740227,PR_20081012_012335_722_LC16,2008-10-12 01:23:35.722411+00:00,Tasmania 2008,r20081011_231958_sisters_16_quadrep,44.8386001635312,1,NC,0.212830857030404,0.222818265079157,-42.9555869204,148.007053078,2.01,,,35.1772348484849,11.9765303030303,
1417704,2747127,PR_20081012_031836_667_LC16,2008-10-12 03:18:36.667723+00:00,Tasmania 2008,r20081011_231958_sisters_16_quadrep,51.6790884717214,1,NC,0.0213038130381304,0.52338894340857,-42.9534805678,148.004402929,2.138,,,35.1722,11.952,
1412789,2737327,PR_20081012_003515_323_LC16,2008-10-12 00:35:15.323206+00:00,Tasmania 2008,r20081011_231958_sisters_16_quadrep,63.9278050633414,1,NC,0.0249434222178491,0.685136726416329,-42.9483636541,148.005716701,2.93,,,35.1854,11.9326,
1410601,2709298,PR_20081010_053551_549_LC16,2008-10-10 05:35:51.549628+00:00,Tasmania 2008,r20081010_032919_ChevronRockS_14_transect,31.3898505532614,1,NC,0.130719275804388,0.917767892188931,-43.1196694971,148.045440369,1.36,,,35.144,11.9767142857143,
1407418,2626278,PR_20081010_034554_587_LC16,2008-10-10 03:45:54.587891+00:00,Tasmania 2008,r20081010_032919_ChevronRockS_14_transect,36.6411093082493,1,NC,0.215438354816491,0.317218369750098,-43.1199134714,148.044597955,2.708,,,35.1448961038961,11.9842077922078,
1418173,2748027,PR_20081012_033336_785_LC16,2008-10-12 03:33:36.785896+00:00,Tasmania 2008,r20081011_231958_sisters_16_quadrep,51.9672155774366,1,NC,0.0498892988929889,0.718482172064115,-42.9539599937,148.008135348,2.02,,,35.172,11.9562934782609,
