kpid,image__id,image_name,date_time,campaign,deployment,depth,label,code,x,y,latitude,longitude,altitude,pitch,roll,salinity,temperature,yaw
918743,2721693,PR_20081008_020807_638_LC16,2008-10-08 02:08:07.638199+00:00,Tasmania 2008,r20081007_224547_ohara_07_transect,34.790773894019,166,BRYS,0.626931024303847,0.616838937589952,-43.0844780509,147.976094796,1.783,,,35.1556320754717,11.9763773584906,
918742,2721693,PR_20081008_020807_638_LC16,2008-10-08 02:08:07.638199+00:00,Tasmania 2008,r20081007_224547_ohara_07_transect,34.790773894019,166,BRYS,0.25391124667913,0.311984822713594,-43.0844780509,147.976094796,1.783,,,35.1556320754717,11.9763773584906,
918741,2721693,PR_20081008_020807_638_LC16,2008-10-08 02:08:07.638199+00:00,Tasmania 2008,r20081007_224547_ohara_07_transect,34.790773894019,166,BRYS,0.275115615467874,0.505233547036504,-43.0844780509,147.976094796,1.783,,,35.1556320754717,11.9763773584906,
918740,2721693,PR_20081008_020807_638_LC16,2008-10-08 02:08:07.638199+00:00,Tasmania 2008,r20081007_224547_ohara_07_transect,34.790773894019,166,BRYS,0.351323428121618,0.479065811853984,-43.0844780509,147.976094796,1.783,,,35.1556320754717,11.9763773584906,
918739,2721693,PR_20081008_020807_638_LC16,2008-10-08 02:08:07.638199+00:00,Tasmania 2008,r20081007_224547_ohara_07_transect,34.790773894019,45,MALCB,0.540145626291449,0.232696585110559,-43.0844780509,147.976094796,1.783,,,35.1556320754717,11.9763773584906,
918738,2721693,PR_20081008_020807_638_LC16,2008-10-08 02:08:07.638199+00:00,Tasmania 2008,r20081007_224547_ohara_07_transect,34.790773894019,45,MALCB,0.557414149365345,0.132147062671726,-43.0844780509,147.976094796,1.783,,,35.1556320754717,11.9763773584906,
918737,2721693,PR_20081008_020807_638_LC16,2008-10-08 02:08:07.638199+00:00,Tasmania 2008,r20081007_224547_ohara_07_transect,34.790773894019,45,MALCB,0.583439929154777,0.274303284050765,-43.0844780509,147.976094796,1.783,,,35.1556320754717,11.9763773584906,
918736,2721693,PR_20081008_020807_638_LC16,2008-10-08 02:08:07.638199+00:00,Tasmania 2008,r20081007_224547_ohara_07_transect,34.790773894019,45,MALCB,0.674800747810686,0.255920450085045,-43.0844780509,147.976094796,1.783,,,35.1556320754717,11.9763773584906,
918735,2721693,PR_20081008_020807_638_LC16,2008-10-08 02:08:07.638199+00:00,Tasmania 2008,r20081007_224547_ohara_07_transect,34.790773894019,45,MALCB,0.645085112663584,0.141305769985608,-43.0844780509,147.976094796,1.783,,,35.1556320754717,11.9763773584906,
918734,2721693,PR_20081008_020807_638_LC16,2008-10-08 02:08:07.638199+00:00,Tasmania 2008,r20081007_224547_ohara_07_transect,34.790773894019,45,MALCB,0.486568926498081,0.0334947010336255,-43.0844780509,147.976094796,1.783,,,35.1556320754717,11.9763773584906,
918733,2721693,PR_20081008_020807_638_LC16,2008-10-08 02:08:07.638199+00:00,Tasmania 2008,r20081007_224547_ohara_07_transect,34.790773894019,45,MALCB,0.89702843648529,0.176697631819966,-43.0844780509,147.976094796,1.783,,,35.1556320754717,11.9763773584906,
918732,2721693,PR_20081008_020807_638_LC16,2008-10-08 02:08:07.638199+00:00,Tasmania 2008,r20081007_224547_ohara_07_transect,34.790773894019,45,MALCB,0.450506740135787,0.950085045139343,-43.0844780509,147.976094796,1.783,,,35.1556320754717,11.9763773584906,
918731,2721693,PR_20081008_020807_638_LC16,2008-10-08 02:08:07.638199+00:00,Tasmania 2008,r20081007_224547_ohara_07_transect,34.790773894019,45,MALCB,0.475991341139427,0.937132016223996,-43.0844780509,147.976094796,1.783,,,35.1556320754717,11.9763773584906,
918730,2721693,PR_20081008_020807_638_LC16,2008-10-08 02:08:07.638199+00:00,Tasmania 2008,r20081007_224547_ohara_07_transect,34.790773894019,45,MALCB,0.87287218341041,0.0617558550307471,-43.0844780509,147.976094796,1.783,,,35.1556320754717,11.9763773584906,
918729,2721693,PR_20081008_020807_638_LC16,2008-10-08 02:08:07.638199+00:00,Tasmania 2008,r20081007_224547_ohara_07_transect,34.790773894019,45,MALCB,0.55165797500738,0.136988093680492,-43.0844780509,147.976094796,1.783,,,35.1556320754717,11.9763773584906,
918728,2721693,PR_20081008_020807_638_LC16,2008-10-08 02:08:07.638199+00:00,Tasmania 2008,r20081007_224547_ohara_07_transect,34.790773894019,45,MALCB,0.398799567056971,0.975533167604344,-43.0844780509,147.976094796,1.783,,,35.1556320754717,11.9763773584906,
918727,2721693,PR_20081008_020807_638_LC16,2008-10-08 02:08:07.638199+00:00,Tasmania 2008,r20081007_224547_ohara_07_transect,34.790773894019,45,MALCB,0.742497294106071,0.149941122595839,-43.0844780509,147.976094796,1.783,,,35.1556320754717,11.9763773584906,
918726,2721693,PR_20081008_020807_638_LC16,2008-10-08 02:08:07.638199+00:00,Tasmania 2008,r20081007_224547_ohara_07_transect,34.790773894019,45,MALCB,0.802814129686116,0.184613371712678,-43.0844780509,147.976094796,1.783,,,35.1556320754717,11.9763773584906,
918725,2721693,PR_20081008_020807_638_LC16,2008-10-08 02:08:07.638199+00:00,Tasmania 2008,r20081007_224547_ohara_07_transect,34.790773894019,39,MA,0.405933287415133,0.725369619259453,-43.0844780509,147.976094796,1.783,,,35.1556320754717,11.9763773584906,
918724,2721693,PR_20081008_020807_638_LC16,2008-10-08 02:08:07.638199+00:00,Tasmania 2008,r20081007_224547_ohara_07_transect,34.790773894019,39,MA,0.812850536258979,0.902852283134895,-43.0844780509,147.976094796,1.783,,,35.1556320754717,11.9763773584906,
918723,2721693,PR_20081008_020807_638_LC16,2008-10-08 02:08:07.638199+00:00,Tasmania 2008,r20081007_224547_ohara_07_transect,34.790773894019,39,MA,0.960985929351569,0.925683632081643,-43.0844780509,147.976094796,1.783,,,35.1556320754717,11.9763773584906,
918722,2721693,PR_20081008_020807_638_LC16,2008-10-08 02:08:07.638199+00:00,Tasmania 2008,r20081007_224547_ohara_07_transect,34.790773894019,39,MA,0.0246974318606711,0.297527149025252,-43.0844780509,147.976094796,1.783,,,35.1556320754717,11.9763773584906,
918721,2721693,PR_20081008_020807_638_LC16,2008-10-08 02:08:07.638199+00:00,Tasmania 2008,r20081007_224547_ohara_07_transect,34.790773894019,39,MA,0.0974613795139231,0.733350778490122,-43.0844780509,147.976094796,1.783,,,35.1556320754717,11.9763773584906,
918720,2721693,PR_20081008_020807_638_LC16,2008-10-08 02:08:07.638199+00:00,Tasmania 2008,r20081007_224547_ohara_07_transect,34.790773894019,39,MA,0.275312407753616,0.715360460552139,-43.0844780509,147.976094796,1.783,,,35.1556320754717,11.9763773584906,
918719,2721693,PR_20081008_020807_638_LC16,2008-10-08 02:08:07.638199+00:00,Tasmania 2008,r20081007_224547_ohara_07_transect,34.790773894019,39,MA,0.37198661812457,0.56188669370666,-43.0844780509,147.976094796,1.783,,,35.1556320754717,11.9763773584906,
918718,2721693,PR_20081008_020807_638_LC16,2008-10-08 02:08:07.638199+00:00,Tasmania 2008,r20081007_224547_ohara_07_transect,34.790773894019,39,MA,0.925514119846502,0.592241266518383,-43.0844780509,147.976094796,1.783,,,35.1556320754717,11.9763773584906,
918717,2721693,PR_20081008_020807_638_LC16,2008-10-08 02:08:07.638199+00:00,Tasmania 2008,r20081007_224547_ohara_07_transect,34.790773894019,39,MA,0.783134901111876,0.793340311396049,-43.0844780509,147.976094796,1.783,,,35.1556320754717,11.9763773584906,
918716,2721693,PR_20081008_020807_638_LC16,2008-10-08 02:08:07.638199+00:00,Tasmania 2008,r20081007_224547_ohara_07_transect,34.790773894019,39,MA,0.329528682475647,0.454075624754677,-43.0844780509,147.976094796,1.783,,,35.1556320754717,11.9763773584906,
918715,2721693,PR_20081008_020807_638_LC16,2008-10-08 02:08:07.638199+00:00,Tasmania 2008,r20081007_224547_ohara_07_transect,34.790773894019,39,MA,0.669339761881334,0.6562867983776,-43.0844780509,147.976094796,1.783,,,35.1556320754717,11.9763773584906,
918714,2721693,PR_20081008_020807_638_LC16,2008-10-08 02:08:07.638199+00:00,Tasmania 2008,r20081007_224547_ohara_07_transect,34.790773894019,39,MA,0.539899635934271,0.384665707183043,-43.0844780509,147.976094796,1.783,,,35.1556320754717,11.9763773584906,
918713,2721693,PR_20081008_020807_638_LC16,2008-10-08 02:08:07.638199+00:00,Tasmania 2008,r20081007_224547_ohara_07_transect,34.790773894019,39,MA,0.101889205943127,0.039055344759911,-43.0844780509,147.976094796,1.783,,,35.1556320754717,11.9763773584906,
918712,2721693,PR_20081008_020807_638_LC16,2008-10-08 02:08:07.638199+00:00,Tasmania 2008,r20081007_224547_ohara_07_transect,34.790773894019,39,MA,0.880793072911542,0.934384404029831,-43.0844780509,147.976094796,1.783,,,35.1556320754717,11.9763773584906,
918711,2721693,PR_20081008_020807_638_LC16,2008-10-08 02:08:07.638199+00:00,Tasmania 2008,r20081007_224547_ohara_07_transect,34.790773894019,39,MA,0.988536849355505,0.803349470103363,-43.0844780509,147.976094796,1.783,,,35.1556320754717,11.9763773584906,
918710,2721693,PR_20081008_020807_638_LC16,2008-10-08 02:08:07.638199+00:00,Tasmania 2008,r20081007_224547_ohara_07_transect,34.790773894019,39,MA,0.327462363475352,0.414627763967029,-43.0844780509,147.976094796,1.783,,,35.1556320754717,11.9763773584906,
918709,2721693,PR_20081008_020807_638_LC16,2008-10-08 02:08:07.638199+00:00,Tasmania 2008,r20081007_224547_ohara_07_transect,34.790773894019,39,MA,0.235068385319295,0.729098521522962,-43.0844780509,147.976094796,1.783,,,35.1556320754717,11.9763773584906,
918708,2721693,PR_20081008_020807_638_LC16,2008-10-08 02:08:07.638199+00:00,Tasmania 2008,r20081007_224547_ohara_07_transect,34.790773894019,39,MA,0.656745055593821,0.995682323694884,-43.0844780509,147.976094796,1.783,,,35.1556320754717,11.9763773584906,
918707,2721693,PR_20081008_020807_638_LC16,2008-10-08 02:08:07.638199+00:00,Tasmania 2008,r20081007_224547_ohara_07_transect,34.790773894019,39,MA,0.0728623437961232,0.566400628025644,-43.0844780509,147.976094796,1.783,,,35.1556320754717,11.9763773584906,
918706,2721693,PR_20081008_020807_638_LC16,2008-10-08 02:08:07.638199+00:00,Tasmania 2008,r20081007_224547_ohara_07_transect,34.790773894019,39,MA,0.44253665256322,0.441384273191155,-43.0844780509,147.976094796,1.783,,,35.1556320754717,11.9763773584906,
918705,2721693,PR_20081008_020807_638_LC16,2008-10-08 02:08:07.638199+00:00,Tasmania 2008,r20081007_224547_ohara_07_transect,34.790773894019,39,MA,0.969841582209977,0.636988093680492,-43.0844780509,147.976094796,1.783,,,35.1556320754717,11.9763773584906,
918704,2721693,PR_20081008_020807_638_LC16,2008-10-08 02:08:07.638199+00:00,Tasmania 2008,r20081007_224547_ohara_07_transect,34.790773894019,39,MA,0.0718291842959756,0.854965327750883,-43.0844780509,147.976094796,1.783,,,35.1556320754717,11.9763773584906,
918703,2721693,PR_20081008_020807_638_LC16,2008-10-08 02:08:07.638199+00:00,Tasmania 2008,r20081007_224547_ohara_07_transect,34.790773894019,39,MA,0.196152710813736,0.706921365955776,-43.0844780509,147.976094796,1.783,,,35.1556320754717,11.9763773584906,
918702,2721693,PR_20081008_020807_638_LC16,2008-10-08 02:08:07.638199+00:00,Tasmania 2008,r20081007_224547_ohara_07_transect,34.790773894019,39,MA,0.179179376168454,0.0662043700117755,-43.0844780509,147.976094796,1.783,,,35.1556320754717,11.9763773584906,
918701,2721693,PR_20081008_020807_638_LC16,2008-10-08 02:08:07.638199+00:00,Tasmania 2008,r20081007_224547_ohara_07_transect,34.790773894019,39,MA,0.954540981993506,0.909263378254612,-43.0844780509,147.976094796,1.783,,,35.1556320754717,11.9763773584906,
918700,2721693,PR_20081008_020807_638_LC16,2008-10-08 02:08:07.638199+00:00,Tasmania 2008,r20081007_224547_ohara_07_transect,34.790773894019,39,MA,0.0997736888713962,0.0645034672249117,-43.0844780509,147.976094796,1.783,,,35.1556320754717,11.9763773584906,
918699,2721693,PR_20081008_020807_638_LC16,2008-10-08 02:08:07.638199+00:00,Tasmania 2008,r20081007_224547_ohara_07_transect,34.790773894019,39,MA,0.519826822788547,0.556783985346068,-43.0844780509,147.976094796,1.783,,,35.1556320754717,11.9763773584906,
918698,2721693,PR_20081008_020807_638_LC16,2008-10-08 02:08:07.638199+00:00,Tasmania 2008,r20081007_224547_ohara_07_transect,34.790773894019,252,SC,0.0956902489422415,0.627698547690697,-43.0844780509,147.976094796,1.783,,,35.1556320754717,11.9763773584906,
918697,2721693,PR_20081008_020807_638_LC16,2008-10-08 02:08:07.638199+00:00,Tasmania 2008,r20081007_224547_ohara_07_transect,34.790773894019,2,BIOTA,0.262766899537538,0.337760041868376,-43.0844780509,147.976094796,1.783,,,35.1556320754717,11.9763773584906,
918696,2721693,PR_20081008_020807_638_LC16,2008-10-08 02:08:07.638199+00:00,Tasmania 2008,r20081007_224547_ohara_07_transect,34.790773894019,2,BIOTA,0.505854570500836,0.620698678529373,-43.0844780509,147.976094796,1.783,,,35.1556320754717,11.9763773584906,
918695,2721693,PR_20081008_020807_638_LC16,2008-10-08 02:08:07.638199+00:00,Tasmania 2008,r20081007_224547_ohara_07_transect,34.790773894019,2,BIOTA,0.763947653251993,0.862946486981552,-43.0844780509,147.976094796,1.783,,,35.1556320754717,11.9763773584906,
918694,2721693,PR_20081008_020807_638_LC16,2008-10-08 02:08:07.638199+00:00,Tasmania 2008,r20081007_224547_ohara_07_transect,34.790773894019,2,BIOTA,0.936878874348126,0.842273976187361,-43.0844780509,147.976094796,1.783,,,35.1556320754717,11.9763773584906,
918508,2721101,PR_20081008_020627_627_LC16,2008-10-08 02:06:27.627488+00:00,Tasmania 2008,r20081007_224547_ohara_07_transect,34.1130633367909,45,MALCB,0.580881629440126,0.326049980374199,-43.084139833,147.975950293,2.738,,,35.1632371134021,11.9746288659794,
918507,2721101,PR_20081008_020627_627_LC16,2008-10-08 02:06:27.627488+00:00,Tasmania 2008,r20081007_224547_ohara_07_transect,34.1130633367909,45,MALCB,0.619305323231329,0.841554363469842,-43.084139833,147.975950293,2.738,,,35.1632371134021,11.9746288659794,
918506,2721101,PR_20081008_020627_627_LC16,2008-10-08 02:06:27.627488+00:00,Tasmania 2008,r20081007_224547_ohara_07_transect,34.1130633367909,45,MALCB,0.161615664665945,0.811657726023813,-43.084139833,147.975950293,2.738,,,35.1632371134021,11.9746288659794,
918505,2721101,PR_20081008_020627_627_LC16,2008-10-08 02:06:27.627488+00:00,Tasmania 2008,r20081007_224547_ohara_07_transect,34.1130633367909,39,MA,0.878529961625504,0.761153997121549,-43.084139833,147.975950293,2.738,,,35.1632371134021,11.9746288659794,
918504,2721101,PR_20081008_020627_627_LC16,2008-10-08 02:06:27.627488+00:00,Tasmania 2008,r20081007_224547_ohara_07_transect,34.1130633367909,39,MA,0.792974515398996,0.440730079811592,-43.084139833,147.975950293,2.738,,,35.1632371134021,11.9746288659794,
918503,2721101,PR_20081008_020627_627_LC16,2008-10-08 02:06:27.627488+00:00,Tasmania 2008,r20081007_224547_ohara_07_transect,34.1130633367909,39,MA,0.90898356784414,0.266191286144184,-43.084139833,147.975950293,2.738,,,35.1632371134021,11.9746288659794,
918502,2721101,PR_20081008_020627_627_LC16,2008-10-08 02:06:27.627488+00:00,Tasmania 2008,r20081007_224547_ohara_07_transect,34.1130633367909,39,MA,0.673324805667618,0.943870208033495,-43.084139833,147.975950293,2.738,,,35.1632371134021,11.9746288659794,
918501,2721101,PR_20081008_020627_627_LC16,2008-10-08 02:06:27.627488+00:00,Tasmania 2008,r20081007_224547_ohara_07_transect,34.1130633367909,39,MA,0.984256617140608,0.779013476383619,-43.084139833,147.975950293,2.738,,,35.1632371134021,11.9746288659794,
918500,2721101,PR_20081008_020627_627_LC16,2008-10-08 02:06:27.627488+00:00,Tasmania 2008,r20081007_224547_ohara_07_transect,34.1130633367909,39,MA,0.247663091606809,0.300994373936936,-43.084139833,147.975950293,2.738,,,35.1632371134021,11.9746288659794,
918499,2721101,PR_20081008_020627_627_LC16,2008-10-08 02:06:27.627488+00:00,Tasmania 2008,r20081007_224547_ohara_07_transect,34.1130633367909,39,MA,0.714208403030601,0.717519298704697,-43.084139833,147.975950293,2.738,,,35.1632371134021,11.9746288659794,
918498,2721101,PR_20081008_020627_627_LC16,2008-10-08 02:06:27.627488+00:00,Tasmania 2008,r20081007_224547_ohara_07_transect,34.1130633367909,39,MA,0.0191872478598839,0.961860525971477,-43.084139833,147.975950293,2.738,,,35.1632371134021,11.9746288659794,
918497,2721101,PR_20081008_020627_627_LC16,2008-10-08 02:06:27.627488+00:00,Tasmania 2008,r20081007_224547_ohara_07_transect,34.1130633367909,2,BIOTA,0.319246285545607,0.849862619390292,-43.084139833,147.975950293,2.738,,,35.1632371134021,11.9746288659794,
918496,2721101,PR_20081008_020627_627_LC16,2008-10-08 02:06:27.627488+00:00,Tasmania 2008,r20081007_224547_ohara_07_transect,34.1130633367909,2,BIOTA,0.651185673521598,0.686575951851367,-43.084139833,147.975950293,2.738,,,35.1632371134021,11.9746288659794,
918495,2721101,PR_20081008_020627_627_LC16,2008-10-08 02:06:27.627488+00:00,Tasmania 2008,r20081007_224547_ohara_07_transect,34.1130633367909,2,BIOTA,0.864065728623438,0.524008897029962,-43.084139833,147.975950293,2.738,,,35.1632371134021,11.9746288659794,
918494,2721101,PR_20081008_020627_627_LC16,2008-10-08 02:06:27.627488+00:00,Tasmania 2008,r20081007_224547_ohara_07_transect,34.1130633367909,2,BIOTA,0.17598150152514,0.279733089101138,-43.084139833,147.975950293,2.738,,,35.1632371134021,11.9746288659794,
918943,2722312,PR_20081008_020947_651_LC16,2008-10-08 02:09:47.651752+00:00,Tasmania 2008,r20081007_224547_ohara_07_transect,32.3807299060814,47,MALAR,0.835327579442919,0.0927734375,-43.0847893696,147.97626696,2.377,,,35.1488024691358,11.9845308641975,
918942,2722312,PR_20081008_020947_651_LC16,2008-10-08 02:09:47.651752+00:00,Tasmania 2008,r20081007_224547_ohara_07_transect,32.3807299060814,47,MALAR,0.920949391918399,0.346354166666667,-43.0847893696,147.97626696,2.377,,,35.1488024691358,11.9845308641975,
918941,2722312,PR_20081008_020947_651_LC16,2008-10-08 02:09:47.651752+00:00,Tasmania 2008,r20081007_224547_ohara_07_transect,32.3807299060814,47,MALAR,0.887259709690075,0.117057291666667,-43.0847893696,147.97626696,2.377,,,35.1488024691358,11.9845308641975,
918940,2722312,PR_20081008_020947_651_LC16,2008-10-08 02:09:47.651752+00:00,Tasmania 2008,r20081007_224547_ohara_07_transect,32.3807299060814,166,BRYS,0.268389564535112,0.482747395833333,-43.0847893696,147.97626696,2.377,,,35.1488024691358,11.9845308641975,
918939,2722312,PR_20081008_020947_651_LC16,2008-10-08 02:09:47.651752+00:00,Tasmania 2008,r20081007_224547_ohara_07_transect,32.3807299060814,166,BRYS,0.213564142801098,0.428450520833333,-43.0847893696,147.97626696,2.377,,,35.1488024691358,11.9845308641975,
918938,2722312,PR_20081008_020947_651_LC16,2008-10-08 02:09:47.651752+00:00,Tasmania 2008,r20081007_224547_ohara_07_transect,32.3807299060814,166,BRYS,0.246616320125539,0.521158854166667,-43.0847893696,147.97626696,2.377,,,35.1488024691358,11.9845308641975,
918937,2722312,PR_20081008_020947_651_LC16,2008-10-08 02:09:47.651752+00:00,Tasmania 2008,r20081007_224547_ohara_07_transect,32.3807299060814,166,BRYS,0.186200470772852,0.7060546875,-43.0847893696,147.97626696,2.377,,,35.1488024691358,11.9845308641975,
918936,2722312,PR_20081008_020947_651_LC16,2008-10-08 02:09:47.651752+00:00,Tasmania 2008,r20081007_224547_ohara_07_transect,32.3807299060814,166,BRYS,0.229354648881914,0.734309895833333,-43.0847893696,147.97626696,2.377,,,35.1488024691358,11.9845308641975,
918935,2722312,PR_20081008_020947_651_LC16,2008-10-08 02:09:47.651752+00:00,Tasmania 2008,r20081007_224547_ohara_07_transect,32.3807299060814,166,BRYS,0.234650843468027,0.471940104166667,-43.0847893696,147.97626696,2.377,,,35.1488024691358,11.9845308641975,
918934,2722312,PR_20081008_020947_651_LC16,2008-10-08 02:09:47.651752+00:00,Tasmania 2008,r20081007_224547_ohara_07_transect,32.3807299060814,166,BRYS,0.25980776775206,0.3587890625,-43.0847893696,147.97626696,2.377,,,35.1488024691358,11.9845308641975,
918933,2722312,PR_20081008_020947_651_LC16,2008-10-08 02:09:47.651752+00:00,Tasmania 2008,r20081007_224547_ohara_07_transect,32.3807299060814,45,MALCB,0.638093369949,0.045703125,-43.0847893696,147.97626696,2.377,,,35.1488024691358,11.9845308641975,
918932,2722312,PR_20081008_020947_651_LC16,2008-10-08 02:09:47.651752+00:00,Tasmania 2008,r20081007_224547_ohara_07_transect,32.3807299060814,45,MALCB,0.126814437034131,0.668033854166667,-43.0847893696,147.97626696,2.377,,,35.1488024691358,11.9845308641975,
918931,2722312,PR_20081008_020947_651_LC16,2008-10-08 02:09:47.651752+00:00,Tasmania 2008,r20081007_224547_ohara_07_transect,32.3807299060814,45,MALCB,0.314486072969792,0.953841145833333,-43.0847893696,147.97626696,2.377,,,35.1488024691358,11.9845308641975,
918930,2722312,PR_20081008_020947_651_LC16,2008-10-08 02:09:47.651752+00:00,Tasmania 2008,r20081007_224547_ohara_07_transect,32.3807299060814,45,MALCB,0.017604943114947,0.647591145833333,-43.0847893696,147.97626696,2.377,,,35.1488024691358,11.9845308641975,
918929,2722312,PR_20081008_020947_651_LC16,2008-10-08 02:09:47.651752+00:00,Tasmania 2008,r20081007_224547_ohara_07_transect,32.3807299060814,45,MALCB,0.95061788936838,0.334114583333333,-43.0847893696,147.97626696,2.377,,,35.1488024691358,11.9845308641975,
918928,2722312,PR_20081008_020947_651_LC16,2008-10-08 02:09:47.651752+00:00,Tasmania 2008,r20081007_224547_ohara_07_transect,32.3807299060814,45,MALCB,0.242153785798352,0.336197916666667,-43.0847893696,147.97626696,2.377,,,35.1488024691358,11.9845308641975,
918927,2722312,PR_20081008_020947_651_LC16,2008-10-08 02:09:47.651752+00:00,Tasmania 2008,r20081007_224547_ohara_07_transect,32.3807299060814,45,MALCB,0.726167124362495,0.749348958333333,-43.0847893696,147.97626696,2.377,,,35.1488024691358,11.9845308641975,
918926,2722312,PR_20081008_020947_651_LC16,2008-10-08 02:09:47.651752+00:00,Tasmania 2008,r20081007_224547_ohara_07_transect,32.3807299060814,45,MALCB,0.06085719890153,0.655143229166667,-43.0847893696,147.97626696,2.377,,,35.1488024691358,11.9845308641975,
918925,2722312,PR_20081008_020947_651_LC16,2008-10-08 02:09:47.651752+00:00,Tasmania 2008,r20081007_224547_ohara_07_transect,32.3807299060814,45,MALCB,0.107934484111416,0.359375,-43.0847893696,147.97626696,2.377,,,35.1488024691358,11.9845308641975,
918924,2722312,PR_20081008_020947_651_LC16,2008-10-08 02:09:47.651752+00:00,Tasmania 2008,r20081007_224547_ohara_07_transect,32.3807299060814,45,MALCB,0.167320517850137,0.282486979166667,-43.0847893696,147.97626696,2.377,,,35.1488024691358,11.9845308641975,
918923,2722312,PR_20081008_020947_651_LC16,2008-10-08 02:09:47.651752+00:00,Tasmania 2008,r20081007_224547_ohara_07_transect,32.3807299060814,45,MALCB,0.0020105923891722,0.200390625,-43.0847893696,147.97626696,2.377,,,35.1488024691358,11.9845308641975,
918922,2722312,PR_20081008_020947_651_LC16,2008-10-08 02:09:47.651752+00:00,Tasmania 2008,r20081007_224547_ohara_07_transect,32.3807299060814,45,MALCB,0.224990192232248,0.975651041666667,-43.0847893696,147.97626696,2.377,,,35.1488024691358,11.9845308641975,
918921,2722312,PR_20081008_020947_651_LC16,2008-10-08 02:09:47.651752+00:00,Tasmania 2008,r20081007_224547_ohara_07_transect,32.3807299060814,45,MALCB,0.0105433503334641,0.712825520833333,-43.0847893696,147.97626696,2.377,,,35.1488024691358,11.9845308641975,
918920,2722312,PR_20081008_020947_651_LC16,2008-10-08 02:09:47.651752+00:00,Tasmania 2008,r20081007_224547_ohara_07_transect,32.3807299060814,45,MALCB,0.79604746959592,0.533463541666667,-43.0847893696,147.97626696,2.377,,,35.1488024691358,11.9845308641975,
918919,2722312,PR_20081008_020947_651_LC16,2008-10-08 02:09:47.651752+00:00,Tasmania 2008,r20081007_224547_ohara_07_transect,32.3807299060814,45,MALCB,0.104845037269517,0.918815104166667,-43.0847893696,147.97626696,2.377,,,35.1488024691358,11.9845308641975,
918918,2722312,PR_20081008_020947_651_LC16,2008-10-08 02:09:47.651752+00:00,Tasmania 2008,r20081007_224547_ohara_07_transect,32.3807299060814,45,MALCB,0.0464888191447627,0.429296875,-43.0847893696,147.97626696,2.377,,,35.1488024691358,11.9845308641975,
918917,2722312,PR_20081008_020947_651_LC16,2008-10-08 02:09:47.651752+00:00,Tasmania 2008,r20081007_224547_ohara_07_transect,32.3807299060814,45,MALCB,0.0281482934484111,0.4224609375,-43.0847893696,147.97626696,2.377,,,35.1488024691358,11.9845308641975,
918916,2722312,PR_20081008_020947_651_LC16,2008-10-08 02:09:47.651752+00:00,Tasmania 2008,r20081007_224547_ohara_07_transect,32.3807299060814,45,MALCB,0.260543350333464,0.9560546875,-43.0847893696,147.97626696,2.377,,,35.1488024691358,11.9845308641975,
918915,2722312,PR_20081008_020947_651_LC16,2008-10-08 02:09:47.651752+00:00,Tasmania 2008,r20081007_224547_ohara_07_transect,32.3807299060814,45,MALCB,0.0382502942330326,0.2240234375,-43.0847893696,147.97626696,2.377,,,35.1488024691358,11.9845308641975,
918914,2722312,PR_20081008_020947_651_LC16,2008-10-08 02:09:47.651752+00:00,Tasmania 2008,r20081007_224547_ohara_07_transect,32.3807299060814,45,MALCB,0.0682130247155747,0.0606119791666667,-43.0847893696,147.97626696,2.377,,,35.1488024691358,11.9845308641975,
918913,2722312,PR_20081008_020947_651_LC16,2008-10-08 02:09:47.651752+00:00,Tasmania 2008,r20081007_224547_ohara_07_transect,32.3807299060814,45,MALCB,0.653442526480973,0.737044270833333,-43.0847893696,147.97626696,2.377,,,35.1488024691358,11.9845308641975,
918912,2722312,PR_20081008_020947_651_LC16,2008-10-08 02:09:47.651752+00:00,Tasmania 2008,r20081007_224547_ohara_07_transect,32.3807299060814,45,MALCB,0.412220478619066,0.816927083333333,-43.0847893696,147.97626696,2.377,,,35.1488024691358,11.9845308641975,
918911,2722312,PR_20081008_020947_651_LC16,2008-10-08 02:09:47.651752+00:00,Tasmania 2008,r20081007_224547_ohara_07_transect,32.3807299060814,45,MALCB,0.770645351118086,0.606510416666667,-43.0847893696,147.97626696,2.377,,,35.1488024691358,11.9845308641975,
918910,2722312,PR_20081008_020947_651_LC16,2008-10-08 02:09:47.651752+00:00,Tasmania 2008,r20081007_224547_ohara_07_transect,32.3807299060814,45,MALCB,0.863770105923892,0.526171875,-43.0847893696,147.97626696,2.377,,,35.1488024691358,11.9845308641975,
918909,2722312,PR_20081008_020947_651_LC16,2008-10-08 02:09:47.651752+00:00,Tasmania 2008,r20081007_224547_ohara_07_transect,32.3807299060814,45,MALCB,0.364603766182817,0.1228515625,-43.0847893696,147.97626696,2.377,,,35.1488024691358,11.9845308641975,
918908,2722312,PR_20081008_020947_651_LC16,2008-10-08 02:09:47.651752+00:00,Tasmania 2008,r20081007_224547_ohara_07_transect,32.3807299060814,39,MA,0.83061985092193,0.415299479166667,-43.0847893696,147.97626696,2.377,,,35.1488024691358,11.9845308641975,
918907,2722312,PR_20081008_020947_651_LC16,2008-10-08 02:09:47.651752+00:00,Tasmania 2008,r20081007_224547_ohara_07_transect,32.3807299060814,39,MA,0.862298940761083,0.436588541666667,-43.0847893696,147.97626696,2.377,,,35.1488024691358,11.9845308641975,
918906,2722312,PR_20081008_020947_651_LC16,2008-10-08 02:09:47.651752+00:00,Tasmania 2008,r20081007_224547_ohara_07_transect,32.3807299060814,39,MA,0.923303256178894,0.640299479166667,-43.0847893696,147.97626696,2.377,,,35.1488024691358,11.9845308641975,
918905,2722312,PR_20081008_020947_651_LC16,2008-10-08 02:09:47.651752+00:00,Tasmania 2008,r20081007_224547_ohara_07_transect,32.3807299060814,39,MA,0.856708513142409,0.346158854166667,-43.0847893696,147.97626696,2.377,,,35.1488024691358,11.9845308641975,
918904,2722312,PR_20081008_020947_651_LC16,2008-10-08 02:09:47.651752+00:00,Tasmania 2008,r20081007_224547_ohara_07_transect,32.3807299060814,39,MA,0.808160062769714,0.381380208333333,-43.0847893696,147.97626696,2.377,,,35.1488024691358,11.9845308641975,
918903,2722312,PR_20081008_020947_651_LC16,2008-10-08 02:09:47.651752+00:00,Tasmania 2008,r20081007_224547_ohara_07_transect,32.3807299060814,39,MA,0.933405256963515,0.488411458333333,-43.0847893696,147.97626696,2.377,,,35.1488024691358,11.9845308641975,
918902,2722312,PR_20081008_020947_651_LC16,2008-10-08 02:09:47.651752+00:00,Tasmania 2008,r20081007_224547_ohara_07_transect,32.3807299060814,39,MA,0.570272655943507,0.132291666666667,-43.0847893696,147.97626696,2.377,,,35.1488024691358,11.9845308641975,
918901,2722312,PR_20081008_020947_651_LC16,2008-10-08 02:09:47.651752+00:00,Tasmania 2008,r20081007_224547_ohara_07_transect,32.3807299060814,39,MA,0.384268340525696,0.5583984375,-43.0847893696,147.97626696,2.377,,,35.1488024691358,11.9845308641975,
918900,2722312,PR_20081008_020947_651_LC16,2008-10-08 02:09:47.651752+00:00,Tasmania 2008,r20081007_224547_ohara_07_transect,32.3807299060814,39,MA,0.95223617104747,0.9646484375,-43.0847893696,147.97626696,2.377,,,35.1488024691358,11.9845308641975,
918899,2722312,PR_20081008_020947_651_LC16,2008-10-08 02:09:47.651752+00:00,Tasmania 2008,r20081007_224547_ohara_07_transect,32.3807299060814,67,MAENR,0.605139270302079,0.926432291666667,-43.0847893696,147.97626696,2.377,,,35.1488024691358,11.9845308641975,
918898,2722312,PR_20081008_020947_651_LC16,2008-10-08 02:09:47.651752+00:00,Tasmania 2008,r20081007_224547_ohara_07_transect,32.3807299060814,39,MA,0.768830914083955,0.7923828125,-43.0847893696,147.97626696,2.377,,,35.1488024691358,11.9845308641975,
918897,2722312,PR_20081008_020947_651_LC16,2008-10-08 02:09:47.651752+00:00,Tasmania 2008,r20081007_224547_ohara_07_transect,32.3807299060814,2,BIOTA,0.897410749313456,0.0872395833333333,-43.0847893696,147.97626696,2.377,,,35.1488024691358,11.9845308641975,
918896,2722312,PR_20081008_020947_651_LC16,2008-10-08 02:09:47.651752+00:00,Tasmania 2008,r20081007_224547_ohara_07_transect,32.3807299060814,2,BIOTA,0.701108277755983,0.839973958333333,-43.0847893696,147.97626696,2.377,,,35.1488024691358,11.9845308641975,
918895,2722312,PR_20081008_020947_651_LC16,2008-10-08 02:09:47.651752+00:00,Tasmania 2008,r20081007_224547_ohara_07_transect,32.3807299060814,2,BIOTA,0.370439387995292,0.6611328125,-43.0847893696,147.97626696,2.377,,,35.1488024691358,11.9845308641975,
918894,2722312,PR_20081008_020947_651_LC16,2008-10-08 02:09:47.651752+00:00,Tasmania 2008,r20081007_224547_ohara_07_transect,32.3807299060814,241,SUS,0.894958807375441,0.465364583333333,-43.0847893696,147.97626696,2.377,,,35.1488024691358,11.9845308641975,
918343,2720476,PR_20081008_020447_609_LC16,2008-10-08 02:04:47.609007+00:00,Tasmania 2008,r20081007_224547_ohara_07_transect,35.4326738354938,45,MALCB,0.566269802223753,0.433599371974356,-43.0838022857,147.975835317,2.12,,,35.152412371134,11.9828762886598,
918342,2720476,PR_20081008_020447_609_LC16,2008-10-08 02:04:47.609007+00:00,Tasmania 2008,r20081007_224547_ohara_07_transect,35.4326738354938,45,MALCB,0.0576109416510873,0.247023420122988,-43.0838022857,147.975835317,2.12,,,35.152412371134,11.9828762886598,
918341,2720476,PR_20081008_020447_609_LC16,2008-10-08 02:04:47.609007+00:00,Tasmania 2008,r20081007_224547_ohara_07_transect,35.4326738354938,45,MALCB,0.495276985142182,0.801190631950805,-43.0838022857,147.975835317,2.12,,,35.152412371134,11.9828762886598,
918340,2720476,PR_20081008_020447_609_LC16,2008-10-08 02:04:47.609007+00:00,Tasmania 2008,r20081007_224547_ohara_07_transect,35.4326738354938,45,MALCB,0.669339761881334,0.361245584194688,-43.0838022857,147.975835317,2.12,,,35.152412371134,11.9828762886598,
918339,2720476,PR_20081008_020447_609_LC16,2008-10-08 02:04:47.609007+00:00,Tasmania 2008,r20081007_224547_ohara_07_transect,35.4326738354938,45,MALCB,0.289087867755584,0.353591521653801,-43.0838022857,147.975835317,2.12,,,35.152412371134,11.9828762886598,
918338,2720476,PR_20081008_020447_609_LC16,2008-10-08 02:04:47.609007+00:00,Tasmania 2008,r20081007_224547_ohara_07_transect,35.4326738354938,45,MALCB,0.243235265177605,0.494635614287583,-43.0838022857,147.975835317,2.12,,,35.152412371134,11.9828762886598,
918337,2720476,PR_20081008_020447_609_LC16,2008-10-08 02:04:47.609007+00:00,Tasmania 2008,r20081007_224547_ohara_07_transect,35.4326738354938,45,MALCB,0.92084030306012,0.6474551877535,-43.0838022857,147.975835317,2.12,,,35.152412371134,11.9828762886598,
918336,2720476,PR_20081008_020447_609_LC16,2008-10-08 02:04:47.609007+00:00,Tasmania 2008,r20081007_224547_ohara_07_transect,35.4326738354938,45,MALCB,0.842516973334645,0.355488682454534,-43.0838022857,147.975835317,2.12,,,35.152412371134,11.9828762886598,
918335,2720476,PR_20081008_020447_609_LC16,2008-10-08 02:04:47.609007+00:00,Tasmania 2008,r20081007_224547_ohara_07_transect,35.4326738354938,45,MALCB,0.438994391419856,0.851432683501243,-43.0838022857,147.975835317,2.12,,,35.152412371134,11.9828762886598,
918334,2720476,PR_20081008_020447_609_LC16,2008-10-08 02:04:47.609007+00:00,Tasmania 2008,r20081007_224547_ohara_07_transect,35.4326738354938,45,MALCB,0.383006986126144,0.0272144445898208,-43.0838022857,147.975835317,2.12,,,35.152412371134,11.9828762886598,
918333,2720476,PR_20081008_020447_609_LC16,2008-10-08 02:04:47.609007+00:00,Tasmania 2008,r20081007_224547_ohara_07_transect,35.4326738354938,45,MALCB,0.0780773393682968,0.0821012691351563,-43.0838022857,147.975835317,2.12,,,35.152412371134,11.9828762886598,
918332,2720476,PR_20081008_020447_609_LC16,2008-10-08 02:04:47.609007+00:00,Tasmania 2008,r20081007_224547_ohara_07_transect,35.4326738354938,45,MALCB,0.0135294696447899,0.0762135287190894,-43.0838022857,147.975835317,2.12,,,35.152412371134,11.9828762886598,
918331,2720476,PR_20081008_020447_609_LC16,2008-10-08 02:04:47.609007+00:00,Tasmania 2008,r20081007_224547_ohara_07_transect,35.4326738354938,45,MALCB,0.661910853094559,0.133193772079027,-43.0838022857,147.975835317,2.12,,,35.152412371134,11.9828762886598,
918330,2720476,PR_20081008_020447_609_LC16,2008-10-08 02:04:47.609007+00:00,Tasmania 2008,r20081007_224547_ohara_07_transect,35.4326738354938,45,MALCB,0.0807340352258192,0.154324218238911,-43.0838022857,147.975835317,2.12,,,35.152412371134,11.9828762886598,
918329,2720476,PR_20081008_020447_609_LC16,2008-10-08 02:04:47.609007+00:00,Tasmania 2008,r20081007_224547_ohara_07_transect,35.4326738354938,45,MALCB,0.465856538423694,0.77881721836975,-43.0838022857,147.975835317,2.12,,,35.152412371134,11.9828762886598,
918328,2720476,PR_20081008_020447_609_LC16,2008-10-08 02:04:47.609007+00:00,Tasmania 2008,r20081007_224547_ohara_07_transect,35.4326738354938,45,MALCB,0.618026173374004,0.499084129268612,-43.0838022857,147.975835317,2.12,,,35.152412371134,11.9828762886598,
918327,2720476,PR_20081008_020447_609_LC16,2008-10-08 02:04:47.609007+00:00,Tasmania 2008,r20081007_224547_ohara_07_transect,35.4326738354938,45,MALCB,0.747072714749582,0.451785947926207,-43.0838022857,147.975835317,2.12,,,35.152412371134,11.9828762886598,
918326,2720476,PR_20081008_020447_609_LC16,2008-10-08 02:04:47.609007+00:00,Tasmania 2008,r20081007_224547_ohara_07_transect,35.4326738354938,45,MALCB,0.599429302371347,0.376553709276462,-43.0838022857,147.975835317,2.12,,,35.152412371134,11.9828762886598,
918325,2720476,PR_20081008_020447_609_LC16,2008-10-08 02:04:47.609007+00:00,Tasmania 2008,r20081007_224547_ohara_07_transect,35.4326738354938,45,MALCB,0.919561153202794,0.368245453356012,-43.0838022857,147.975835317,2.12,,,35.152412371134,11.9828762886598,
918324,2720476,PR_20081008_020447_609_LC16,2008-10-08 02:04:47.609007+00:00,Tasmania 2008,r20081007_224547_ohara_07_transect,35.4326738354938,45,MALCB,0.49306307192758,0.122268742640324,-43.0838022857,147.975835317,2.12,,,35.152412371134,11.9828762886598,
918323,2720476,PR_20081008_020447_609_LC16,2008-10-08 02:04:47.609007+00:00,Tasmania 2008,r20081007_224547_ohara_07_transect,35.4326738354938,45,MALCB,0.325789629046541,0.0804657856862489,-43.0838022857,147.975835317,2.12,,,35.152412371134,11.9828762886598,
918322,2720476,PR_20081008_020447_609_LC16,2008-10-08 02:04:47.609007+00:00,Tasmania 2008,r20081007_224547_ohara_07_transect,35.4326738354938,45,MALCB,0.792925317327561,0.052139212351171,-43.0838022857,147.975835317,2.12,,,35.152412371134,11.9828762886598,
918321,2720476,PR_20081008_020447_609_LC16,2008-10-08 02:04:47.609007+00:00,Tasmania 2008,r20081007_224547_ohara_07_transect,35.4326738354938,45,MALCB,0.134359933090623,0.572746303807405,-43.0838022857,147.975835317,2.12,,,35.152412371134,11.9828762886598,
918320,2720476,PR_20081008_020447_609_LC16,2008-10-08 02:04:47.609007+00:00,Tasmania 2008,r20081007_224547_ohara_07_transect,35.4326738354938,45,MALCB,0.133031585161862,0.0457281172314536,-43.0838022857,147.975835317,2.12,,,35.152412371134,11.9828762886598,
918319,2720476,PR_20081008_020447_609_LC16,2008-10-08 02:04:47.609007+00:00,Tasmania 2008,r20081007_224547_ohara_07_transect,35.4326738354938,45,MALCB,0.75514119846502,0.163679183566662,-43.0838022857,147.975835317,2.12,,,35.152412371134,11.9828762886598,
918318,2720476,PR_20081008_020447_609_LC16,2008-10-08 02:04:47.609007+00:00,Tasmania 2008,r20081007_224547_ohara_07_transect,35.4326738354938,45,MALCB,0.100314867657188,0.368441711369881,-43.0838022857,147.975835317,2.12,,,35.152412371134,11.9828762886598,
918317,2720476,PR_20081008_020447_609_LC16,2008-10-08 02:04:47.609007+00:00,Tasmania 2008,r20081007_224547_ohara_07_transect,35.4326738354938,45,MALCB,0.342221784906032,0.237733874133194,-43.0838022857,147.975835317,2.12,,,35.152412371134,11.9828762886598,
918316,2720476,PR_20081008_020447_609_LC16,2008-10-08 02:04:47.609007+00:00,Tasmania 2008,r20081007_224547_ohara_07_transect,35.4326738354938,45,MALCB,0.105874249729411,0.312311919403376,-43.0838022857,147.975835317,2.12,,,35.152412371134,11.9828762886598,
918315,2720476,PR_20081008_020447_609_LC16,2008-10-08 02:04:47.609007+00:00,Tasmania 2008,r20081007_224547_ohara_07_transect,35.4326738354938,45,MALCB,0.0606120240086589,0.178660211958655,-43.0838022857,147.975835317,2.12,,,35.152412371134,11.9828762886598,
918314,2720476,PR_20081008_020447_609_LC16,2008-10-08 02:04:47.609007+00:00,Tasmania 2008,r20081007_224547_ohara_07_transect,35.4326738354938,39,MA,0.131555643018794,0.924113567970692,-43.0838022857,147.975835317,2.12,,,35.152412371134,11.9828762886598,
918313,2720476,PR_20081008_020447_609_LC16,2008-10-08 02:04:47.609007+00:00,Tasmania 2008,r20081007_224547_ohara_07_transect,35.4326738354938,39,MA,0.893879759913411,0.999607483972262,-43.0838022857,147.975835317,2.12,,,35.152412371134,11.9828762886598,
918312,2720476,PR_20081008_020447_609_LC16,2008-10-08 02:04:47.609007+00:00,Tasmania 2008,r20081007_224547_ohara_07_transect,35.4326738354938,39,MA,0.478008462068287,0.963626848096297,-43.0838022857,147.975835317,2.12,,,35.152412371134,11.9828762886598,
918311,2720476,PR_20081008_020447_609_LC16,2008-10-08 02:04:47.609007+00:00,Tasmania 2008,r20081007_224547_ohara_07_transect,35.4326738354938,39,MA,0.904358949129194,0.987308648436478,-43.0838022857,147.975835317,2.12,,,35.152412371134,11.9828762886598,
918310,2720476,PR_20081008_020447_609_LC16,2008-10-08 02:04:47.609007+00:00,Tasmania 2008,r20081007_224547_ohara_07_transect,35.4326738354938,39,MA,0.922217849060317,0.736425487374068,-43.0838022857,147.975835317,2.12,,,35.152412371134,11.9828762886598,
918309,2720476,PR_20081008_020447_609_LC16,2008-10-08 02:04:47.609007+00:00,Tasmania 2008,r20081007_224547_ohara_07_transect,35.4326738354938,39,MA,0.0990357177998622,0.809106371843517,-43.0838022857,147.975835317,2.12,,,35.152412371134,11.9828762886598,
918308,2720476,PR_20081008_020447_609_LC16,2008-10-08 02:04:47.609007+00:00,Tasmania 2008,r20081007_224547_ohara_07_transect,35.4326738354938,39,MA,0.0326675194332382,0.734462907235379,-43.0838022857,147.975835317,2.12,,,35.152412371134,11.9828762886598,
918307,2720476,PR_20081008_020447_609_LC16,2008-10-08 02:04:47.609007+00:00,Tasmania 2008,r20081007_224547_ohara_07_transect,35.4326738354938,39,MA,0.731476926104497,0.600484103100877,-43.0838022857,147.975835317,2.12,,,35.152412371134,11.9828762886598,
918306,2720476,PR_20081008_020447_609_LC16,2008-10-08 02:04:47.609007+00:00,Tasmania 2008,r20081007_224547_ohara_07_transect,35.4326738354938,39,MA,0.957886450851127,0.99345806620437,-43.0838022857,147.975835317,2.12,,,35.152412371134,11.9828762886598,
918305,2720476,PR_20081008_020447_609_LC16,2008-10-08 02:04:47.609007+00:00,Tasmania 2008,r20081007_224547_ohara_07_transect,35.4326738354938,39,MA,0.97864803699695,0.124035064765145,-43.0838022857,147.975835317,2.12,,,35.152412371134,11.9828762886598,
918304,2720476,PR_20081008_020447_609_LC16,2008-10-08 02:04:47.609007+00:00,Tasmania 2008,r20081007_224547_ohara_07_transect,35.4326738354938,39,MA,0.867755583981108,0.0909328797592568,-43.0838022857,147.975835317,2.12,,,35.152412371134,11.9828762886598,
918303,2720476,PR_20081008_020447_609_LC16,2008-10-08 02:04:47.609007+00:00,Tasmania 2008,r20081007_224547_ohara_07_transect,35.4326738354938,39,MA,0.0205647938600807,0.445636530158315,-43.0838022857,147.975835317,2.12,,,35.152412371134,11.9828762886598,
918302,2720476,PR_20081008_020447_609_LC16,2008-10-08 02:04:47.609007+00:00,Tasmania 2008,r20081007_224547_ohara_07_transect,35.4326738354938,39,MA,0.0839319098691331,0.670417375376161,-43.0838022857,147.975835317,2.12,,,35.152412371134,11.9828762886598,
918301,2720476,PR_20081008_020447_609_LC16,2008-10-08 02:04:47.609007+00:00,Tasmania 2008,r20081007_224547_ohara_07_transect,35.4326738354938,39,MA,0.734576404604939,0.663024990187099,-43.0838022857,147.975835317,2.12,,,35.152412371134,11.9828762886598,
918300,2720476,PR_20081008_020447_609_LC16,2008-10-08 02:04:47.609007+00:00,Tasmania 2008,r20081007_224547_ohara_07_transect,35.4326738354938,39,MA,0.882957788054708,0.948384142352479,-43.0838022857,147.975835317,2.12,,,35.152412371134,11.9828762886598,
918299,2720476,PR_20081008_020447_609_LC16,2008-10-08 02:04:47.609007+00:00,Tasmania 2008,r20081007_224547_ohara_07_transect,35.4326738354938,39,MA,0.906572862343796,0.0541672118278163,-43.0838022857,147.975835317,2.12,,,35.152412371134,11.9828762886598,
918298,2720476,PR_20081008_020447_609_LC16,2008-10-08 02:04:47.609007+00:00,Tasmania 2008,r20081007_224547_ohara_07_transect,35.4326738354938,39,MA,0.0797008757256716,0.655305508308256,-43.0838022857,147.975835317,2.12,,,35.152412371134,11.9828762886598,
918297,2720476,PR_20081008_020447_609_LC16,2008-10-08 02:04:47.609007+00:00,Tasmania 2008,r20081007_224547_ohara_07_transect,35.4326738354938,39,MA,0.929597559775657,0.149548606568102,-43.0838022857,147.975835317,2.12,,,35.152412371134,11.9828762886598,
918296,2720476,PR_20081008_020447_609_LC16,2008-10-08 02:04:47.609007+00:00,Tasmania 2008,r20081007_224547_ohara_07_transect,35.4326738354938,39,MA,0.734527206533504,0.676959309171791,-43.0838022857,147.975835317,2.12,,,35.152412371134,11.9828762886598,
918295,2720476,PR_20081008_020447_609_LC16,2008-10-08 02:04:47.609007+00:00,Tasmania 2008,r20081007_224547_ohara_07_transect,35.4326738354938,2,BIOTA,0.660926891665847,0.800405599895329,-43.0838022857,147.975835317,2.12,,,35.152412371134,11.9828762886598,
918294,2720476,PR_20081008_020447_609_LC16,2008-10-08 02:04:47.609007+00:00,Tasmania 2008,r20081007_224547_ohara_07_transect,35.4326738354938,2,BIOTA,0.968660828495523,0.755266256705482,-43.0838022857,147.975835317,2.12,,,35.152412371134,11.9828762886598,
918095,2719888,PR_20081008_020307_595_LC16,2008-10-08 02:03:07.595717+00:00,Tasmania 2008,r20081007_224547_ohara_07_transect,37.4151706180995,241,SUS,0.217947456459707,0.896375768677221,-43.083480696,147.975747792,2.243,,,35.1491578947368,11.9826228070175,
918094,2719888,PR_20081008_020307_595_LC16,2008-10-08 02:03:07.595717+00:00,Tasmania 2008,r20081007_224547_ohara_07_transect,37.4151706180995,241,SUS,0.911591065630227,0.687164725892974,-43.083480696,147.975747792,2.243,,,35.1491578947368,11.9826228070175,
918543,2721101,PR_20081008_020627_627_LC16,2008-10-08 02:06:27.627488+00:00,Tasmania 2008,r20081007_224547_ohara_07_transect,34.1130633367909,166,BRYS,0.764193643609171,0.467944524401413,-43.084139833,147.975950293,2.738,,,35.1632371134021,11.9746288659794,
918542,2721101,PR_20081008_020627_627_LC16,2008-10-08 02:06:27.627488+00:00,Tasmania 2008,r20081007_224547_ohara_07_transect,34.1130633367909,166,BRYS,0.396339663485191,0.94413188538532,-43.084139833,147.975950293,2.738,,,35.1632371134021,11.9746288659794,
918541,2721101,PR_20081008_020627_627_LC16,2008-10-08 02:06:27.627488+00:00,Tasmania 2008,r20081007_224547_ohara_07_transect,34.1130633367909,166,BRYS,0.459854373708551,0.853853199005626,-43.084139833,147.975950293,2.738,,,35.1632371134021,11.9746288659794,
918540,2721101,PR_20081008_020627_627_LC16,2008-10-08 02:06:27.627488+00:00,Tasmania 2008,r20081007_224547_ohara_07_transect,34.1130633367909,166,BRYS,0.128652956804093,0.936870338872171,-43.084139833,147.975950293,2.738,,,35.1632371134021,11.9746288659794,
918539,2721101,PR_20081008_020627_627_LC16,2008-10-08 02:06:27.627488+00:00,Tasmania 2008,r20081007_224547_ohara_07_transect,34.1130633367909,166,BRYS,0.258339073108334,0.676239696454272,-43.084139833,147.975950293,2.738,,,35.1632371134021,11.9746288659794,
918538,2721101,PR_20081008_020627_627_LC16,2008-10-08 02:06:27.627488+00:00,Tasmania 2008,r20081007_224547_ohara_07_transect,34.1130633367909,45,MALCB,0.487995670569714,0.28058354049457,-43.084139833,147.975950293,2.738,,,35.1632371134021,11.9746288659794,
918537,2721101,PR_20081008_020627_627_LC16,2008-10-08 02:06:27.627488+00:00,Tasmania 2008,r20081007_224547_ohara_07_transect,34.1130633367909,45,MALCB,0.672783626881826,0.276723799555148,-43.084139833,147.975950293,2.738,,,35.1632371134021,11.9746288659794,
918536,2721101,PR_20081008_020627_627_LC16,2008-10-08 02:06:27.627488+00:00,Tasmania 2008,r20081007_224547_ohara_07_transect,34.1130633367909,45,MALCB,0.166338679523763,0.78234986261939,-43.084139833,147.975950293,2.738,,,35.1632371134021,11.9746288659794,
918535,2721101,PR_20081008_020627_627_LC16,2008-10-08 02:06:27.627488+00:00,Tasmania 2008,r20081007_224547_ohara_07_transect,34.1130633367909,45,MALCB,0.634212338876316,0.853133586288107,-43.084139833,147.975950293,2.738,,,35.1632371134021,11.9746288659794,
918534,2721101,PR_20081008_020627_627_LC16,2008-10-08 02:06:27.627488+00:00,Tasmania 2008,r20081007_224547_ohara_07_transect,34.1130633367909,45,MALCB,0.255829971465119,0.206070914562345,-43.084139833,147.975950293,2.738,,,35.1632371134021,11.9746288659794,
918533,2721101,PR_20081008_020627_627_LC16,2008-10-08 02:06:27.627488+00:00,Tasmania 2008,r20081007_224547_ohara_07_transect,34.1130633367909,45,MALCB,0.599429302371347,0.397618736098391,-43.084139833,147.975950293,2.738,,,35.1632371134021,11.9746288659794,
918532,2721101,PR_20081008_020627_627_LC16,2008-10-08 02:06:27.627488+00:00,Tasmania 2008,r20081007_224547_ohara_07_transect,34.1130633367909,45,MALCB,0.775361605825052,0.0585503074708884,-43.084139833,147.975950293,2.738,,,35.1632371134021,11.9746288659794,
918531,2721101,PR_20081008_020627_627_LC16,2008-10-08 02:06:27.627488+00:00,Tasmania 2008,r20081007_224547_ohara_07_transect,34.1130633367909,45,MALCB,0.588310538226901,0.156155959701688,-43.084139833,147.975950293,2.738,,,35.1632371134021,11.9746288659794,
918530,2721101,PR_20081008_020627_627_LC16,2008-10-08 02:06:27.627488+00:00,Tasmania 2008,r20081007_224547_ohara_07_transect,34.1130633367909,45,MALCB,0.533011905933287,0.289349731780714,-43.084139833,147.975950293,2.738,,,35.1632371134021,11.9746288659794,
918529,2721101,PR_20081008_020627_627_LC16,2008-10-08 02:06:27.627488+00:00,Tasmania 2008,r20081007_224547_ohara_07_transect,34.1130633367909,45,MALCB,0.875873265767982,0.0336909590474944,-43.084139833,147.975950293,2.738,,,35.1632371134021,11.9746288659794,
918528,2721101,PR_20081008_020627_627_LC16,2008-10-08 02:06:27.627488+00:00,Tasmania 2008,r20081007_224547_ohara_07_transect,34.1130633367909,45,MALCB,0.450408343992915,0.661585764752061,-43.084139833,147.975950293,2.738,,,35.1632371134021,11.9746288659794,
918527,2721101,PR_20081008_020627_627_LC16,2008-10-08 02:06:27.627488+00:00,Tasmania 2008,r20081007_224547_ohara_07_transect,34.1130633367909,45,MALCB,0.208255436386894,0.927449954206463,-43.084139833,147.975950293,2.738,,,35.1632371134021,11.9746288659794,
918526,2721101,PR_20081008_020627_627_LC16,2008-10-08 02:06:27.627488+00:00,Tasmania 2008,r20081007_224547_ohara_07_transect,34.1130633367909,45,MALCB,0.601052838728722,0.998495355227005,-43.084139833,147.975950293,2.738,,,35.1632371134021,11.9746288659794,
918525,2721101,PR_20081008_020627_627_LC16,2008-10-08 02:06:27.627488+00:00,Tasmania 2008,r20081007_224547_ohara_07_transect,34.1130633367909,45,MALCB,0.373167371839024,0.33167604343844,-43.084139833,147.975950293,2.738,,,35.1632371134021,11.9746288659794,
918524,2721101,PR_20081008_020627_627_LC16,2008-10-08 02:06:27.627488+00:00,Tasmania 2008,r20081007_224547_ohara_07_transect,34.1130633367909,45,MALCB,0.0521007576503001,0.283789088054429,-43.084139833,147.975950293,2.738,,,35.1632371134021,11.9746288659794,
918523,2721101,PR_20081008_020627_627_LC16,2008-10-08 02:06:27.627488+00:00,Tasmania 2008,r20081007_224547_ohara_07_transect,34.1130633367909,45,MALCB,0.041424776148775,0.526298573858433,-43.084139833,147.975950293,2.738,,,35.1632371134021,11.9746288659794,
918522,2721101,PR_20081008_020627_627_LC16,2008-10-08 02:06:27.627488+00:00,Tasmania 2008,r20081007_224547_ohara_07_transect,34.1130633367909,45,MALCB,0.367460395552494,0.586222687426403,-43.084139833,147.975950293,2.738,,,35.1632371134021,11.9746288659794,
918521,2721101,PR_20081008_020627_627_LC16,2008-10-08 02:06:27.627488+00:00,Tasmania 2008,r20081007_224547_ohara_07_transect,34.1130633367909,45,MALCB,0.433435009347634,0.477234070391208,-43.084139833,147.975950293,2.738,,,35.1632371134021,11.9746288659794,
918520,2721101,PR_20081008_020627_627_LC16,2008-10-08 02:06:27.627488+00:00,Tasmania 2008,r20081007_224547_ohara_07_transect,34.1130633367909,45,MALCB,0.712781658958969,0.323498626193903,-43.084139833,147.975950293,2.738,,,35.1632371134021,11.9746288659794,
918519,2721101,PR_20081008_020627_627_LC16,2008-10-08 02:06:27.627488+00:00,Tasmania 2008,r20081007_224547_ohara_07_transect,34.1130633367909,45,MALCB,0.631162058447309,0.0715687557241921,-43.084139833,147.975950293,2.738,,,35.1632371134021,11.9746288659794,
918518,2721101,PR_20081008_020627_627_LC16,2008-10-08 02:06:27.627488+00:00,Tasmania 2008,r20081007_224547_ohara_07_transect,34.1130633367909,45,MALCB,0.93392699006199,0.0915216538008635,-43.084139833,147.975950293,2.738,,,35.1632371134021,11.9746288659794,
918517,2721101,PR_20081008_020627_627_LC16,2008-10-08 02:06:27.627488+00:00,Tasmania 2008,r20081007_224547_ohara_07_transect,34.1130633367909,45,MALCB,0.734527206533504,0.180295695407562,-43.084139833,147.975950293,2.738,,,35.1632371134021,11.9746288659794,
918516,2721101,PR_20081008_020627_627_LC16,2008-10-08 02:06:27.627488+00:00,Tasmania 2008,r20081007_224547_ohara_07_transect,34.1130633367909,45,MALCB,0.234133621962019,0.959374591129138,-43.084139833,147.975950293,2.738,,,35.1632371134021,11.9746288659794,
918515,2721101,PR_20081008_020627_627_LC16,2008-10-08 02:06:27.627488+00:00,Tasmania 2008,r20081007_224547_ohara_07_transect,34.1130633367909,45,MALCB,0.458378431565483,0.437851628941515,-43.084139833,147.975950293,2.738,,,35.1632371134021,11.9746288659794,
918514,2721101,PR_20081008_020627_627_LC16,2008-10-08 02:06:27.627488+00:00,Tasmania 2008,r20081007_224547_ohara_07_transect,34.1130633367909,45,MALCB,0.32893830561842,0.0735313358628811,-43.084139833,147.975950293,2.738,,,35.1632371134021,11.9746288659794,
918513,2721101,PR_20081008_020627_627_LC16,2008-10-08 02:06:27.627488+00:00,Tasmania 2008,r20081007_224547_ohara_07_transect,34.1130633367909,45,MALCB,0.240824559677261,0.989009551223342,-43.084139833,147.975950293,2.738,,,35.1632371134021,11.9746288659794,
918512,2721101,PR_20081008_020627_627_LC16,2008-10-08 02:06:27.627488+00:00,Tasmania 2008,r20081007_224547_ohara_07_transect,34.1130633367909,45,MALCB,0.665354718095051,0.871058484888133,-43.084139833,147.975950293,2.738,,,35.1632371134021,11.9746288659794,
918511,2721101,PR_20081008_020627_627_LC16,2008-10-08 02:06:27.627488+00:00,Tasmania 2008,r20081007_224547_ohara_07_transect,34.1130633367909,45,MALCB,0.569713667224245,0.164333376946225,-43.084139833,147.975950293,2.738,,,35.1632371134021,11.9746288659794,
918510,2721101,PR_20081008_020627_627_LC16,2008-10-08 02:06:27.627488+00:00,Tasmania 2008,r20081007_224547_ohara_07_transect,34.1130633367909,45,MALCB,0.674505559382072,0.262593222556588,-43.084139833,147.975950293,2.738,,,35.1632371134021,11.9746288659794,
918509,2721101,PR_20081008_020627_627_LC16,2008-10-08 02:06:27.627488+00:00,Tasmania 2008,r20081007_224547_ohara_07_transect,34.1130633367909,45,MALCB,0.878677555839811,0.945113175454664,-43.084139833,147.975950293,2.738,,,35.1632371134021,11.9746288659794,
917943,2719297,PR_20081008_020127_584_LC16,2008-10-08 02:01:27.584013+00:00,Tasmania 2008,r20081007_224547_ohara_07_transect,38.6951918646134,45,MALCB,0.145391287303376,0.15334027868212,-43.0831641742,147.975690077,2.143,,,35.1470754716981,11.973893081761,
917942,2719297,PR_20081008_020127_584_LC16,2008-10-08 02:01:27.584013+00:00,Tasmania 2008,r20081007_224547_ohara_07_transect,38.6951918646134,45,MALCB,0.530896261086882,0.883187915093111,-43.0831641742,147.975690077,2.143,,,35.1470754716981,11.973893081761,
917941,2719297,PR_20081008_020127_584_LC16,2008-10-08 02:01:27.584013+00:00,Tasmania 2008,r20081007_224547_ohara_07_transect,38.6951918646134,45,MALCB,0.272994560689959,0.073642401354343,-43.0831641742,147.975690077,2.143,,,35.1470754716981,11.973893081761,
917940,2719297,PR_20081008_020127_584_LC16,2008-10-08 02:01:27.584013+00:00,Tasmania 2008,r20081007_224547_ohara_07_transect,38.6951918646134,45,MALCB,0.499926495810261,0.905716890220081,-43.0831641742,147.975690077,2.143,,,35.1470754716981,11.973893081761,
917939,2719297,PR_20081008_020127_584_LC16,2008-10-08 02:01:27.584013+00:00,Tasmania 2008,r20081007_224547_ohara_07_transect,38.6951918646134,45,MALCB,0.257313666879012,0.0392629248600078,-43.0831641742,147.975690077,2.143,,,35.1470754716981,11.973893081761,
917938,2719297,PR_20081008_020127_584_LC16,2008-10-08 02:01:27.584013+00:00,Tasmania 2008,r20081007_224547_ohara_07_transect,38.6951918646134,39,MA,0.911206938795511,0.189477796588097,-43.0831641742,147.975690077,2.143,,,35.1470754716981,11.973893081761,
917937,2719297,PR_20081008_020127_584_LC16,2008-10-08 02:01:27.584013+00:00,Tasmania 2008,r20081007_224547_ohara_07_transect,38.6951918646134,39,MA,0.109129220365561,0.597278291444198,-43.0831641742,147.975690077,2.143,,,35.1470754716981,11.973893081761,
917936,2719297,PR_20081008_020127_584_LC16,2008-10-08 02:01:27.584013+00:00,Tasmania 2008,r20081007_224547_ohara_07_transect,38.6951918646134,39,MA,0.0484147596412996,0.0189477796588097,-43.0831641742,147.975690077,2.143,,,35.1470754716981,11.973893081761,
917935,2719297,PR_20081008_020127_584_LC16,2008-10-08 02:01:27.584013+00:00,Tasmania 2008,r20081007_224547_ohara_07_transect,38.6951918646134,39,MA,0.366883912383006,0.108152103138429,-43.0831641742,147.975690077,2.143,,,35.1470754716981,11.973893081761,
917934,2719297,PR_20081008_020127_584_LC16,2008-10-08 02:01:27.584013+00:00,Tasmania 2008,r20081007_224547_ohara_07_transect,38.6951918646134,39,MA,0.0423384132895575,0.229456960541737,-43.0831641742,147.975690077,2.143,,,35.1470754716981,11.973893081761,
917933,2719297,PR_20081008_020127_584_LC16,2008-10-08 02:01:27.584013+00:00,Tasmania 2008,r20081007_224547_ohara_07_transect,38.6951918646134,39,MA,0.636889302690253,0.645201198072666,-43.0831641742,147.975690077,2.143,,,35.1470754716981,11.973893081761,
917932,2719297,PR_20081008_020127_584_LC16,2008-10-08 02:01:27.584013+00:00,Tasmania 2008,r20081007_224547_ohara_07_transect,38.6951918646134,39,MA,0.882687313176851,0.535616616746972,-43.0831641742,147.975690077,2.143,,,35.1470754716981,11.973893081761,
917931,2719297,PR_20081008_020127_584_LC16,2008-10-08 02:01:27.584013+00:00,Tasmania 2008,r20081007_224547_ohara_07_transect,38.6951918646134,39,MA,0.951144215220268,0.375634848287537,-43.0831641742,147.975690077,2.143,,,35.1470754716981,11.973893081761,
917930,2719297,PR_20081008_020127_584_LC16,2008-10-08 02:01:27.584013+00:00,Tasmania 2008,r20081007_224547_ohara_07_transect,38.6951918646134,39,MA,0.491056990248444,0.592655293658028,-43.0831641742,147.975690077,2.143,,,35.1470754716981,11.973893081761,
917929,2719297,PR_20081008_020127_584_LC16,2008-10-08 02:01:27.584013+00:00,Tasmania 2008,r20081007_224547_ohara_07_transect,38.6951918646134,39,MA,0.259028764639584,0.454746711811434,-43.0831641742,147.975690077,2.143,,,35.1470754716981,11.973893081761,
917928,2719297,PR_20081008_020127_584_LC16,2008-10-08 02:01:27.584013+00:00,Tasmania 2008,r20081007_224547_ohara_07_transect,38.6951918646134,39,MA,0.30955064438673,0.470634197161089,-43.0831641742,147.975690077,2.143,,,35.1470754716981,11.973893081761,
917927,2719297,PR_20081008_020127_584_LC16,2008-10-08 02:01:27.584013+00:00,Tasmania 2008,r20081007_224547_ohara_07_transect,38.6951918646134,39,MA,0.103444896359092,0.872900117202761,-43.0831641742,147.975690077,2.143,,,35.1470754716981,11.973893081761,
917926,2719297,PR_20081008_020127_584_LC16,2008-10-08 02:01:27.584013+00:00,Tasmania 2008,r20081007_224547_ohara_07_transect,38.6951918646134,39,MA,0.965992061547508,0.891522333637192,-43.0831641742,147.975690077,2.143,,,35.1470754716981,11.973893081761,
917925,2719297,PR_20081008_020127_584_LC16,2008-10-08 02:01:27.584013+00:00,Tasmania 2008,r20081007_224547_ohara_07_transect,38.6951918646134,39,MA,0.80212672122311,0.576832920953249,-43.0831641742,147.975690077,2.143,,,35.1470754716981,11.973893081761,
917924,2719297,PR_20081008_020127_584_LC16,2008-10-08 02:01:27.584013+00:00,Tasmania 2008,r20081007_224547_ohara_07_transect,38.6951918646134,39,MA,0.560248934189249,0.641164214090376,-43.0831641742,147.975690077,2.143,,,35.1470754716981,11.973893081761,
917923,2719297,PR_20081008_020127_584_LC16,2008-10-08 02:01:27.584013+00:00,Tasmania 2008,r20081007_224547_ohara_07_transect,38.6951918646134,39,MA,0.266967217131376,0.311694231019664,-43.0831641742,147.975690077,2.143,,,35.1470754716981,11.973893081761,
917922,2719297,PR_20081008_020127_584_LC16,2008-10-08 02:01:27.584013+00:00,Tasmania 2008,r20081007_224547_ohara_07_transect,38.6951918646134,39,MA,0.672269319351203,0.730824326084126,-43.0831641742,147.975690077,2.143,,,35.1470754716981,11.973893081761,
917921,2719297,PR_20081008_020127_584_LC16,2008-10-08 02:01:27.584013+00:00,Tasmania 2008,r20081007_224547_ohara_07_transect,38.6951918646134,39,MA,0.155387857107855,0.515236358900899,-43.0831641742,147.975690077,2.143,,,35.1470754716981,11.973893081761,
917920,2719297,PR_20081008_020127_584_LC16,2008-10-08 02:01:27.584013+00:00,Tasmania 2008,r20081007_224547_ohara_07_transect,38.6951918646134,39,MA,0.238692605478512,0.368928245865347,-43.0831641742,147.975690077,2.143,,,35.1470754716981,11.973893081761,
917919,2719297,PR_20081008_020127_584_LC16,2008-10-08 02:01:27.584013+00:00,Tasmania 2008,r20081007_224547_ohara_07_transect,38.6951918646134,39,MA,0.803645807811045,0.684854798801927,-43.0831641742,147.975690077,2.143,,,35.1470754716981,11.973893081761,
917918,2719297,PR_20081008_020127_584_LC16,2008-10-08 02:01:27.584013+00:00,Tasmania 2008,r20081007_224547_ohara_07_transect,38.6951918646134,39,MA,0.164796393394423,0.866519078004949,-43.0831641742,147.975690077,2.143,,,35.1470754716981,11.973893081761,
917917,2719297,PR_20081008_020127_584_LC16,2008-10-08 02:01:27.584013+00:00,Tasmania 2008,r20081007_224547_ohara_07_transect,38.6951918646134,39,MA,0.392022345273681,0.368667795285845,-43.0831641742,147.975690077,2.143,,,35.1470754716981,11.973893081761,
917916,2719297,PR_20081008_020127_584_LC16,2008-10-08 02:01:27.584013+00:00,Tasmania 2008,r20081007_224547_ohara_07_transect,38.6951918646134,39,MA,0.751506835889646,0.565763771324391,-43.0831641742,147.975690077,2.143,,,35.1470754716981,11.973893081761,
917915,2719297,PR_20081008_020127_584_LC16,2008-10-08 02:01:27.584013+00:00,Tasmania 2008,r20081007_224547_ohara_07_transect,38.6951918646134,39,MA,0.799333562013035,0.450644615184269,-43.0831641742,147.975690077,2.143,,,35.1470754716981,11.973893081761,
917914,2719297,PR_20081008_020127_584_LC16,2008-10-08 02:01:27.584013+00:00,Tasmania 2008,r20081007_224547_ohara_07_transect,38.6951918646134,39,MA,0.47459205174695,0.629118374788384,-43.0831641742,147.975690077,2.143,,,35.1470754716981,11.973893081761,
917913,2719297,PR_20081008_020127_584_LC16,2008-10-08 02:01:27.584013+00:00,Tasmania 2008,r20081007_224547_ohara_07_transect,38.6951918646134,39,MA,0.817709609447739,0.8794764943352,-43.0831641742,147.975690077,2.143,,,35.1470754716981,11.973893081761,
