kpid,image__id,image_name,date_time,depth,label,code,x,y,latitude,longitude,altitude,pitch,roll,salinity,temperature,yaw
918743,2721693,PR_20081008_020807_638_LC16,2008-10-08 02:08:07.638199+00:00,34.79077389,166,BRYS,0.626931024,0.616838938,-43.08447805,147.9760948,1.783,,,35.15563208,11.97637736,
918742,2721693,PR_20081008_020807_638_LC16,2008-10-08 02:08:07.638199+00:00,34.79077389,166,BRYS,0.253911247,0.311984823,-43.08447805,147.9760948,1.783,,,35.15563208,11.97637736,
918741,2721693,PR_20081008_020807_638_LC16,2008-10-08 02:08:07.638199+00:00,34.79077389,166,BRYS,0.275115615,0.505233547,-43.08447805,147.9760948,1.783,,,35.15563208,11.97637736,
918740,2721693,PR_20081008_020807_638_LC16,2008-10-08 02:08:07.638199+00:00,34.79077389,166,BRYS,0.351323428,0.479065812,-43.08447805,147.9760948,1.783,,,35.15563208,11.97637736,
918739,2721693,PR_20081008_020807_638_LC16,2008-10-08 02:08:07.638199+00:00,34.79077389,45,MALCB,0.540145626,0.232696585,-43.08447805,147.9760948,1.783,,,35.15563208,11.97637736,
918738,2721693,PR_20081008_020807_638_LC16,2008-10-08 02:08:07.638199+00:00,34.79077389,45,MALCB,0.557414149,0.132147063,-43.08447805,147.9760948,1.783,,,35.15563208,11.97637736,
918737,2721693,PR_20081008_020807_638_LC16,2008-10-08 02:08:07.638199+00:00,34.79077389,45,MALCB,0.583439929,0.274303284,-43.08447805,147.9760948,1.783,,,35.15563208,11.97637736,
918736,2721693,PR_20081008_020807_638_LC16,2008-10-08 02:08:07.638199+00:00,34.79077389,45,MALCB,0.674800748,0.25592045,-43.08447805,147.9760948,1.783,,,35.15563208,11.97637736,
918735,2721693,PR_20081008_020807_638_LC16,2008-10-08 02:08:07.638199+00:00,34.79077389,45,MALCB,0.645085113,0.14130577,-43.08447805,147.9760948,1.783,,,35.15563208,11.97637736,
918734,2721693,PR_20081008_020807_638_LC16,2008-10-08 02:08:07.638199+00:00,34.79077389,45,MALCB,0.486568926,0.033494701,-43.08447805,147.9760948,1.783,,,35.15563208,11.97637736,
918733,2721693,PR_20081008_020807_638_LC16,2008-10-08 02:08:07.638199+00:00,34.79077389,45,MALCB,0.897028436,0.176697632,-43.08447805,147.9760948,1.783,,,35.15563208,11.97637736,
918732,2721693,PR_20081008_020807_638_LC16,2008-10-08 02:08:07.638199+00:00,34.79077389,45,MALCB,0.45050674,0.950085045,-43.08447805,147.9760948,1.783,,,35.15563208,11.97637736,
918731,2721693,PR_20081008_020807_638_LC16,2008-10-08 02:08:07.638199+00:00,34.79077389,45,MALCB,0.475991341,0.937132016,-43.08447805,147.9760948,1.783,,,35.15563208,11.97637736,
918730,2721693,PR_20081008_020807_638_LC16,2008-10-08 02:08:07.638199+00:00,34.79077389,45,MALCB,0.872872183,0.061755855,-43.08447805,147.9760948,1.783,,,35.15563208,11.97637736,
918729,2721693,PR_20081008_020807_638_LC16,2008-10-08 02:08:07.638199+00:00,34.79077389,45,MALCB,0.551657975,0.136988094,-43.08447805,147.9760948,1.783,,,35.15563208,11.97637736,
918728,2721693,PR_20081008_020807_638_LC16,2008-10-08 02:08:07.638199+00:00,34.79077389,45,MALCB,0.398799567,0.975533168,-43.08447805,147.9760948,1.783,,,35.15563208,11.97637736,
918727,2721693,PR_20081008_020807_638_LC16,2008-10-08 02:08:07.638199+00:00,34.79077389,45,MALCB,0.742497294,0.149941123,-43.08447805,147.9760948,1.783,,,35.15563208,11.97637736,
918726,2721693,PR_20081008_020807_638_LC16,2008-10-08 02:08:07.638199+00:00,34.79077389,45,MALCB,0.80281413,0.184613372,-43.08447805,147.9760948,1.783,,,35.15563208,11.97637736,
918725,2721693,PR_20081008_020807_638_LC16,2008-10-08 02:08:07.638199+00:00,34.79077389,39,MA,0.405933287,0.725369619,-43.08447805,147.9760948,1.783,,,35.15563208,11.97637736,
918724,2721693,PR_20081008_020807_638_LC16,2008-10-08 02:08:07.638199+00:00,34.79077389,39,MA,0.812850536,0.902852283,-43.08447805,147.9760948,1.783,,,35.15563208,11.97637736,
918723,2721693,PR_20081008_020807_638_LC16,2008-10-08 02:08:07.638199+00:00,34.79077389,39,MA,0.960985929,0.925683632,-43.08447805,147.9760948,1.783,,,35.15563208,11.97637736,
918722,2721693,PR_20081008_020807_638_LC16,2008-10-08 02:08:07.638199+00:00,34.79077389,39,MA,0.024697432,0.297527149,-43.08447805,147.9760948,1.783,,,35.15563208,11.97637736,
918721,2721693,PR_20081008_020807_638_LC16,2008-10-08 02:08:07.638199+00:00,34.79077389,39,MA,0.09746138,0.733350778,-43.08447805,147.9760948,1.783,,,35.15563208,11.97637736,
918720,2721693,PR_20081008_020807_638_LC16,2008-10-08 02:08:07.638199+00:00,34.79077389,39,MA,0.275312408,0.715360461,-43.08447805,147.9760948,1.783,,,35.15563208,11.97637736,
918719,2721693,PR_20081008_020807_638_LC16,2008-10-08 02:08:07.638199+00:00,34.79077389,39,MA,0.371986618,0.561886694,-43.08447805,147.9760948,1.783,,,35.15563208,11.97637736,
918718,2721693,PR_20081008_020807_638_LC16,2008-10-08 02:08:07.638199+00:00,34.79077389,39,MA,0.92551412,0.592241267,-43.08447805,147.9760948,1.783,,,35.15563208,11.97637736,
918717,2721693,PR_20081008_020807_638_LC16,2008-10-08 02:08:07.638199+00:00,34.79077389,39,MA,0.783134901,0.793340311,-43.08447805,147.9760948,1.783,,,35.15563208,11.97637736,
918716,2721693,PR_20081008_020807_638_LC16,2008-10-08 02:08:07.638199+00:00,34.79077389,39,MA,0.329528682,0.454075625,-43.08447805,147.9760948,1.783,,,35.15563208,11.97637736,
918715,2721693,PR_20081008_020807_638_LC16,2008-10-08 02:08:07.638199+00:00,34.79077389,39,MA,0.669339762,0.656286798,-43.08447805,147.9760948,1.783,,,35.15563208,11.97637736,
918714,2721693,PR_20081008_020807_638_LC16,2008-10-08 02:08:07.638199+00:00,34.79077389,39,MA,0.539899636,0.384665707,-43.08447805,147.9760948,1.783,,,35.15563208,11.97637736,
918713,2721693,PR_20081008_020807_638_LC16,2008-10-08 02:08:07.638199+00:00,34.79077389,39,MA,0.101889206,0.039055345,-43.08447805,147.9760948,1.783,,,35.15563208,11.97637736,
918712,2721693,PR_20081008_020807_638_LC16,2008-10-08 02:08:07.638199+00:00,34.79077389,39,MA,0.880793073,0.934384404,-43.08447805,147.9760948,1.783,,,35.15563208,11.97637736,
918711,2721693,PR_20081008_020807_638_LC16,2008-10-08 02:08:07.638199+00:00,34.79077389,39,MA,0.988536849,0.80334947,-43.08447805,147.9760948,1.783,,,35.15563208,11.97637736,
918710,2721693,PR_20081008_020807_638_LC16,2008-10-08 02:08:07.638199+00:00,34.79077389,39,MA,0.327462363,0.414627764,-43.08447805,147.9760948,1.783,,,35.15563208,11.97637736,
918709,2721693,PR_20081008_020807_638_LC16,2008-10-08 02:08:07.638199+00:00,34.79077389,39,MA,0.235068385,0.729098522,-43.08447805,147.9760948,1.783,,,35.15563208,11.97637736,
918708,2721693,PR_20081008_020807_638_LC16,2008-10-08 02:08:07.638199+00:00,34.79077389,39,MA,0.656745056,0.995682324,-43.08447805,147.9760948,1.783,,,35.15563208,11.97637736,
918707,2721693,PR_20081008_020807_638_LC16,2008-10-08 02:08:07.638199+00:00,34.79077389,39,MA,0.072862344,0.566400628,-43.08447805,147.9760948,1.783,,,35.15563208,11.97637736,
918706,2721693,PR_20081008_020807_638_LC16,2008-10-08 02:08:07.638199+00:00,34.79077389,39,MA,0.442536653,0.441384273,-43.08447805,147.9760948,1.783,,,35.15563208,11.97637736,
918705,2721693,PR_20081008_020807_638_LC16,2008-10-08 02:08:07.638199+00:00,34.79077389,39,MA,0.969841582,0.636988094,-43.08447805,147.9760948,1.783,,,35.15563208,11.97637736,
918704,2721693,PR_20081008_020807_638_LC16,2008-10-08 02:08:07.638199+00:00,34.79077389,39,MA,0.071829184,0.854965328,-43.08447805,147.9760948,1.783,,,35.15563208,11.97637736,
918703,2721693,PR_20081008_020807_638_LC16,2008-10-08 02:08:07.638199+00:00,34.79077389,39,MA,0.196152711,0.706921366,-43.08447805,147.9760948,1.783,,,35.15563208,11.97637736,
918702,2721693,PR_20081008_020807_638_LC16,2008-10-08 02:08:07.638199+00:00,34.79077389,39,MA,0.179179376,0.06620437,-43.08447805,147.9760948,1.783,,,35.15563208,11.97637736,
918701,2721693,PR_20081008_020807_638_LC16,2008-10-08 02:08:07.638199+00:00,34.79077389,39,MA,0.954540982,0.909263378,-43.08447805,147.9760948,1.783,,,35.15563208,11.97637736,
918700,2721693,PR_20081008_020807_638_LC16,2008-10-08 02:08:07.638199+00:00,34.79077389,39,MA,0.099773689,0.064503467,-43.08447805,147.9760948,1.783,,,35.15563208,11.97637736,
918699,2721693,PR_20081008_020807_638_LC16,2008-10-08 02:08:07.638199+00:00,34.79077389,39,MA,0.519826823,0.556783985,-43.08447805,147.9760948,1.783,,,35.15563208,11.97637736,
918698,2721693,PR_20081008_020807_638_LC16,2008-10-08 02:08:07.638199+00:00,34.79077389,252,SC,0.095690249,0.627698548,-43.08447805,147.9760948,1.783,,,35.15563208,11.97637736,
918697,2721693,PR_20081008_020807_638_LC16,2008-10-08 02:08:07.638199+00:00,34.79077389,2,BIOTA,0.2627669,0.337760042,-43.08447805,147.9760948,1.783,,,35.15563208,11.97637736,
918696,2721693,PR_20081008_020807_638_LC16,2008-10-08 02:08:07.638199+00:00,34.79077389,2,BIOTA,0.505854571,0.620698679,-43.08447805,147.9760948,1.783,,,35.15563208,11.97637736,
918695,2721693,PR_20081008_020807_638_LC16,2008-10-08 02:08:07.638199+00:00,34.79077389,2,BIOTA,0.763947653,0.862946487,-43.08447805,147.9760948,1.783,,,35.15563208,11.97637736,
918694,2721693,PR_20081008_020807_638_LC16,2008-10-08 02:08:07.638199+00:00,34.79077389,2,BIOTA,0.936878874,0.842273976,-43.08447805,147.9760948,1.783,,,35.15563208,11.97637736,
918508,2721101,PR_20081008_020627_627_LC16,2008-10-08 02:06:27.627488+00:00,34.11306334,45,MALCB,0.580881629,0.32604998,-43.08413983,147.9759503,2.738,,,35.16323711,11.97462887,
918507,2721101,PR_20081008_020627_627_LC16,2008-10-08 02:06:27.627488+00:00,34.11306334,45,MALCB,0.619305323,0.841554363,-43.08413983,147.9759503,2.738,,,35.16323711,11.97462887,
918506,2721101,PR_20081008_020627_627_LC16,2008-10-08 02:06:27.627488+00:00,34.11306334,45,MALCB,0.161615665,0.811657726,-43.08413983,147.9759503,2.738,,,35.16323711,11.97462887,
918505,2721101,PR_20081008_020627_627_LC16,2008-10-08 02:06:27.627488+00:00,34.11306334,39,MA,0.878529962,0.761153997,-43.08413983,147.9759503,2.738,,,35.16323711,11.97462887,
918504,2721101,PR_20081008_020627_627_LC16,2008-10-08 02:06:27.627488+00:00,34.11306334,39,MA,0.792974515,0.44073008,-43.08413983,147.9759503,2.738,,,35.16323711,11.97462887,
918503,2721101,PR_20081008_020627_627_LC16,2008-10-08 02:06:27.627488+00:00,34.11306334,39,MA,0.908983568,0.266191286,-43.08413983,147.9759503,2.738,,,35.16323711,11.97462887,
918502,2721101,PR_20081008_020627_627_LC16,2008-10-08 02:06:27.627488+00:00,34.11306334,39,MA,0.673324806,0.943870208,-43.08413983,147.9759503,2.738,,,35.16323711,11.97462887,
918501,2721101,PR_20081008_020627_627_LC16,2008-10-08 02:06:27.627488+00:00,34.11306334,39,MA,0.984256617,0.779013476,-43.08413983,147.9759503,2.738,,,35.16323711,11.97462887,
918500,2721101,PR_20081008_020627_627_LC16,2008-10-08 02:06:27.627488+00:00,34.11306334,39,MA,0.247663092,0.300994374,-43.08413983,147.9759503,2.738,,,35.16323711,11.97462887,
918499,2721101,PR_20081008_020627_627_LC16,2008-10-08 02:06:27.627488+00:00,34.11306334,39,MA,0.714208403,0.717519299,-43.08413983,147.9759503,2.738,,,35.16323711,11.97462887,
918498,2721101,PR_20081008_020627_627_LC16,2008-10-08 02:06:27.627488+00:00,34.11306334,39,MA,0.019187248,0.961860526,-43.08413983,147.9759503,2.738,,,35.16323711,11.97462887,
918497,2721101,PR_20081008_020627_627_LC16,2008-10-08 02:06:27.627488+00:00,34.11306334,2,BIOTA,0.319246286,0.849862619,-43.08413983,147.9759503,2.738,,,35.16323711,11.97462887,
918496,2721101,PR_20081008_020627_627_LC16,2008-10-08 02:06:27.627488+00:00,34.11306334,2,BIOTA,0.651185674,0.686575952,-43.08413983,147.9759503,2.738,,,35.16323711,11.97462887,
918495,2721101,PR_20081008_020627_627_LC16,2008-10-08 02:06:27.627488+00:00,34.11306334,2,BIOTA,0.864065729,0.524008897,-43.08413983,147.9759503,2.738,,,35.16323711,11.97462887,
918494,2721101,PR_20081008_020627_627_LC16,2008-10-08 02:06:27.627488+00:00,34.11306334,2,BIOTA,0.175981502,0.279733089,-43.08413983,147.9759503,2.738,,,35.16323711,11.97462887,
918943,2722312,PR_20081008_020947_651_LC16,2008-10-08 02:09:47.651752+00:00,32.38072991,47,MALAR,0.835327579,0.092773438,-43.08478937,147.976267,2.377,,,35.14880247,11.98453086,
918942,2722312,PR_20081008_020947_651_LC16,2008-10-08 02:09:47.651752+00:00,32.38072991,47,MALAR,0.920949392,0.346354167,-43.08478937,147.976267,2.377,,,35.14880247,11.98453086,
918941,2722312,PR_20081008_020947_651_LC16,2008-10-08 02:09:47.651752+00:00,32.38072991,47,MALAR,0.88725971,0.117057292,-43.08478937,147.976267,2.377,,,35.14880247,11.98453086,
918940,2722312,PR_20081008_020947_651_LC16,2008-10-08 02:09:47.651752+00:00,32.38072991,166,BRYS,0.268389565,0.482747396,-43.08478937,147.976267,2.377,,,35.14880247,11.98453086,
918939,2722312,PR_20081008_020947_651_LC16,2008-10-08 02:09:47.651752+00:00,32.38072991,166,BRYS,0.213564143,0.428450521,-43.08478937,147.976267,2.377,,,35.14880247,11.98453086,
918938,2722312,PR_20081008_020947_651_LC16,2008-10-08 02:09:47.651752+00:00,32.38072991,166,BRYS,0.24661632,0.521158854,-43.08478937,147.976267,2.377,,,35.14880247,11.98453086,
918937,2722312,PR_20081008_020947_651_LC16,2008-10-08 02:09:47.651752+00:00,32.38072991,166,BRYS,0.186200471,0.706054688,-43.08478937,147.976267,2.377,,,35.14880247,11.98453086,
918936,2722312,PR_20081008_020947_651_LC16,2008-10-08 02:09:47.651752+00:00,32.38072991,166,BRYS,0.229354649,0.734309896,-43.08478937,147.976267,2.377,,,35.14880247,11.98453086,
918935,2722312,PR_20081008_020947_651_LC16,2008-10-08 02:09:47.651752+00:00,32.38072991,166,BRYS,0.234650843,0.471940104,-43.08478937,147.976267,2.377,,,35.14880247,11.98453086,
918934,2722312,PR_20081008_020947_651_LC16,2008-10-08 02:09:47.651752+00:00,32.38072991,166,BRYS,0.259807768,0.358789063,-43.08478937,147.976267,2.377,,,35.14880247,11.98453086,
918933,2722312,PR_20081008_020947_651_LC16,2008-10-08 02:09:47.651752+00:00,32.38072991,45,MALCB,0.63809337,0.045703125,-43.08478937,147.976267,2.377,,,35.14880247,11.98453086,
918932,2722312,PR_20081008_020947_651_LC16,2008-10-08 02:09:47.651752+00:00,32.38072991,45,MALCB,0.126814437,0.668033854,-43.08478937,147.976267,2.377,,,35.14880247,11.98453086,
918931,2722312,PR_20081008_020947_651_LC16,2008-10-08 02:09:47.651752+00:00,32.38072991,45,MALCB,0.314486073,0.953841146,-43.08478937,147.976267,2.377,,,35.14880247,11.98453086,
918930,2722312,PR_20081008_020947_651_LC16,2008-10-08 02:09:47.651752+00:00,32.38072991,45,MALCB,0.017604943,0.647591146,-43.08478937,147.976267,2.377,,,35.14880247,11.98453086,
918929,2722312,PR_20081008_020947_651_LC16,2008-10-08 02:09:47.651752+00:00,32.38072991,45,MALCB,0.950617889,0.334114583,-43.08478937,147.976267,2.377,,,35.14880247,11.98453086,
918928,2722312,PR_20081008_020947_651_LC16,2008-10-08 02:09:47.651752+00:00,32.38072991,45,MALCB,0.242153786,0.336197917,-43.08478937,147.976267,2.377,,,35.14880247,11.98453086,
918927,2722312,PR_20081008_020947_651_LC16,2008-10-08 02:09:47.651752+00:00,32.38072991,45,MALCB,0.726167124,0.749348958,-43.08478937,147.976267,2.377,,,35.14880247,11.98453086,
918926,2722312,PR_20081008_020947_651_LC16,2008-10-08 02:09:47.651752+00:00,32.38072991,45,MALCB,0.060857199,0.655143229,-43.08478937,147.976267,2.377,,,35.14880247,11.98453086,
918925,2722312,PR_20081008_020947_651_LC16,2008-10-08 02:09:47.651752+00:00,32.38072991,45,MALCB,0.107934484,0.359375,-43.08478937,147.976267,2.377,,,35.14880247,11.98453086,
918924,2722312,PR_20081008_020947_651_LC16,2008-10-08 02:09:47.651752+00:00,32.38072991,45,MALCB,0.167320518,0.282486979,-43.08478937,147.976267,2.377,,,35.14880247,11.98453086,
918923,2722312,PR_20081008_020947_651_LC16,2008-10-08 02:09:47.651752+00:00,32.38072991,45,MALCB,0.002010592,0.200390625,-43.08478937,147.976267,2.377,,,35.14880247,11.98453086,
918922,2722312,PR_20081008_020947_651_LC16,2008-10-08 02:09:47.651752+00:00,32.38072991,45,MALCB,0.224990192,0.975651042,-43.08478937,147.976267,2.377,,,35.14880247,11.98453086,
918921,2722312,PR_20081008_020947_651_LC16,2008-10-08 02:09:47.651752+00:00,32.38072991,45,MALCB,0.01054335,0.712825521,-43.08478937,147.976267,2.377,,,35.14880247,11.98453086,
918920,2722312,PR_20081008_020947_651_LC16,2008-10-08 02:09:47.651752+00:00,32.38072991,45,MALCB,0.79604747,0.533463542,-43.08478937,147.976267,2.377,,,35.14880247,11.98453086,
918919,2722312,PR_20081008_020947_651_LC16,2008-10-08 02:09:47.651752+00:00,32.38072991,45,MALCB,0.104845037,0.918815104,-43.08478937,147.976267,2.377,,,35.14880247,11.98453086,
918918,2722312,PR_20081008_020947_651_LC16,2008-10-08 02:09:47.651752+00:00,32.38072991,45,MALCB,0.046488819,0.429296875,-43.08478937,147.976267,2.377,,,35.14880247,11.98453086,
918917,2722312,PR_20081008_020947_651_LC16,2008-10-08 02:09:47.651752+00:00,32.38072991,45,MALCB,0.028148293,0.422460938,-43.08478937,147.976267,2.377,,,35.14880247,11.98453086,
918916,2722312,PR_20081008_020947_651_LC16,2008-10-08 02:09:47.651752+00:00,32.38072991,45,MALCB,0.26054335,0.956054688,-43.08478937,147.976267,2.377,,,35.14880247,11.98453086,
918915,2722312,PR_20081008_020947_651_LC16,2008-10-08 02:09:47.651752+00:00,32.38072991,45,MALCB,0.038250294,0.224023438,-43.08478937,147.976267,2.377,,,35.14880247,11.98453086,
918914,2722312,PR_20081008_020947_651_LC16,2008-10-08 02:09:47.651752+00:00,32.38072991,45,MALCB,0.068213025,0.060611979,-43.08478937,147.976267,2.377,,,35.14880247,11.98453086,
918913,2722312,PR_20081008_020947_651_LC16,2008-10-08 02:09:47.651752+00:00,32.38072991,45,MALCB,0.653442526,0.737044271,-43.08478937,147.976267,2.377,,,35.14880247,11.98453086,
918912,2722312,PR_20081008_020947_651_LC16,2008-10-08 02:09:47.651752+00:00,32.38072991,45,MALCB,0.412220479,0.816927083,-43.08478937,147.976267,2.377,,,35.14880247,11.98453086,
918911,2722312,PR_20081008_020947_651_LC16,2008-10-08 02:09:47.651752+00:00,32.38072991,45,MALCB,0.770645351,0.606510417,-43.08478937,147.976267,2.377,,,35.14880247,11.98453086,
918910,2722312,PR_20081008_020947_651_LC16,2008-10-08 02:09:47.651752+00:00,32.38072991,45,MALCB,0.863770106,0.526171875,-43.08478937,147.976267,2.377,,,35.14880247,11.98453086,
918909,2722312,PR_20081008_020947_651_LC16,2008-10-08 02:09:47.651752+00:00,32.38072991,45,MALCB,0.364603766,0.122851563,-43.08478937,147.976267,2.377,,,35.14880247,11.98453086,
918908,2722312,PR_20081008_020947_651_LC16,2008-10-08 02:09:47.651752+00:00,32.38072991,39,MA,0.830619851,0.415299479,-43.08478937,147.976267,2.377,,,35.14880247,11.98453086,
918907,2722312,PR_20081008_020947_651_LC16,2008-10-08 02:09:47.651752+00:00,32.38072991,39,MA,0.862298941,0.436588542,-43.08478937,147.976267,2.377,,,35.14880247,11.98453086,
918906,2722312,PR_20081008_020947_651_LC16,2008-10-08 02:09:47.651752+00:00,32.38072991,39,MA,0.923303256,0.640299479,-43.08478937,147.976267,2.377,,,35.14880247,11.98453086,
918905,2722312,PR_20081008_020947_651_LC16,2008-10-08 02:09:47.651752+00:00,32.38072991,39,MA,0.856708513,0.346158854,-43.08478937,147.976267,2.377,,,35.14880247,11.98453086,
918904,2722312,PR_20081008_020947_651_LC16,2008-10-08 02:09:47.651752+00:00,32.38072991,39,MA,0.808160063,0.381380208,-43.08478937,147.976267,2.377,,,35.14880247,11.98453086,
918903,2722312,PR_20081008_020947_651_LC16,2008-10-08 02:09:47.651752+00:00,32.38072991,39,MA,0.933405257,0.488411458,-43.08478937,147.976267,2.377,,,35.14880247,11.98453086,
918902,2722312,PR_20081008_020947_651_LC16,2008-10-08 02:09:47.651752+00:00,32.38072991,39,MA,0.570272656,0.132291667,-43.08478937,147.976267,2.377,,,35.14880247,11.98453086,
918901,2722312,PR_20081008_020947_651_LC16,2008-10-08 02:09:47.651752+00:00,32.38072991,39,MA,0.384268341,0.558398438,-43.08478937,147.976267,2.377,,,35.14880247,11.98453086,
918900,2722312,PR_20081008_020947_651_LC16,2008-10-08 02:09:47.651752+00:00,32.38072991,39,MA,0.952236171,0.964648438,-43.08478937,147.976267,2.377,,,35.14880247,11.98453086,
918899,2722312,PR_20081008_020947_651_LC16,2008-10-08 02:09:47.651752+00:00,32.38072991,67,MAENR,0.60513927,0.926432292,-43.08478937,147.976267,2.377,,,35.14880247,11.98453086,
918898,2722312,PR_20081008_020947_651_LC16,2008-10-08 02:09:47.651752+00:00,32.38072991,39,MA,0.768830914,0.792382813,-43.08478937,147.976267,2.377,,,35.14880247,11.98453086,
918897,2722312,PR_20081008_020947_651_LC16,2008-10-08 02:09:47.651752+00:00,32.38072991,2,BIOTA,0.897410749,0.087239583,-43.08478937,147.976267,2.377,,,35.14880247,11.98453086,
918896,2722312,PR_20081008_020947_651_LC16,2008-10-08 02:09:47.651752+00:00,32.38072991,2,BIOTA,0.701108278,0.839973958,-43.08478937,147.976267,2.377,,,35.14880247,11.98453086,
918895,2722312,PR_20081008_020947_651_LC16,2008-10-08 02:09:47.651752+00:00,32.38072991,2,BIOTA,0.370439388,0.661132813,-43.08478937,147.976267,2.377,,,35.14880247,11.98453086,
918894,2722312,PR_20081008_020947_651_LC16,2008-10-08 02:09:47.651752+00:00,32.38072991,241,SUS,0.894958807,0.465364583,-43.08478937,147.976267,2.377,,,35.14880247,11.98453086,
918343,2720476,PR_20081008_020447_609_LC16,2008-10-08 02:04:47.609007+00:00,35.43267384,45,MALCB,0.566269802,0.433599372,-43.08380229,147.9758353,2.12,,,35.15241237,11.98287629,
918342,2720476,PR_20081008_020447_609_LC16,2008-10-08 02:04:47.609007+00:00,35.43267384,45,MALCB,0.057610942,0.24702342,-43.08380229,147.9758353,2.12,,,35.15241237,11.98287629,
918341,2720476,PR_20081008_020447_609_LC16,2008-10-08 02:04:47.609007+00:00,35.43267384,45,MALCB,0.495276985,0.801190632,-43.08380229,147.9758353,2.12,,,35.15241237,11.98287629,
918340,2720476,PR_20081008_020447_609_LC16,2008-10-08 02:04:47.609007+00:00,35.43267384,45,MALCB,0.669339762,0.361245584,-43.08380229,147.9758353,2.12,,,35.15241237,11.98287629,
918339,2720476,PR_20081008_020447_609_LC16,2008-10-08 02:04:47.609007+00:00,35.43267384,45,MALCB,0.289087868,0.353591522,-43.08380229,147.9758353,2.12,,,35.15241237,11.98287629,
918338,2720476,PR_20081008_020447_609_LC16,2008-10-08 02:04:47.609007+00:00,35.43267384,45,MALCB,0.243235265,0.494635614,-43.08380229,147.9758353,2.12,,,35.15241237,11.98287629,
918337,2720476,PR_20081008_020447_609_LC16,2008-10-08 02:04:47.609007+00:00,35.43267384,45,MALCB,0.920840303,0.647455188,-43.08380229,147.9758353,2.12,,,35.15241237,11.98287629,
918336,2720476,PR_20081008_020447_609_LC16,2008-10-08 02:04:47.609007+00:00,35.43267384,45,MALCB,0.842516973,0.355488682,-43.08380229,147.9758353,2.12,,,35.15241237,11.98287629,
918335,2720476,PR_20081008_020447_609_LC16,2008-10-08 02:04:47.609007+00:00,35.43267384,45,MALCB,0.438994391,0.851432684,-43.08380229,147.9758353,2.12,,,35.15241237,11.98287629,
918334,2720476,PR_20081008_020447_609_LC16,2008-10-08 02:04:47.609007+00:00,35.43267384,45,MALCB,0.383006986,0.027214445,-43.08380229,147.9758353,2.12,,,35.15241237,11.98287629,
918333,2720476,PR_20081008_020447_609_LC16,2008-10-08 02:04:47.609007+00:00,35.43267384,45,MALCB,0.078077339,0.082101269,-43.08380229,147.9758353,2.12,,,35.15241237,11.98287629,
918332,2720476,PR_20081008_020447_609_LC16,2008-10-08 02:04:47.609007+00:00,35.43267384,45,MALCB,0.01352947,0.076213529,-43.08380229,147.9758353,2.12,,,35.15241237,11.98287629,
918331,2720476,PR_20081008_020447_609_LC16,2008-10-08 02:04:47.609007+00:00,35.43267384,45,MALCB,0.661910853,0.133193772,-43.08380229,147.9758353,2.12,,,35.15241237,11.98287629,
918330,2720476,PR_20081008_020447_609_LC16,2008-10-08 02:04:47.609007+00:00,35.43267384,45,MALCB,0.080734035,0.154324218,-43.08380229,147.9758353,2.12,,,35.15241237,11.98287629,
918329,2720476,PR_20081008_020447_609_LC16,2008-10-08 02:04:47.609007+00:00,35.43267384,45,MALCB,0.465856538,0.778817218,-43.08380229,147.9758353,2.12,,,35.15241237,11.98287629,
918328,2720476,PR_20081008_020447_609_LC16,2008-10-08 02:04:47.609007+00:00,35.43267384,45,MALCB,0.618026173,0.499084129,-43.08380229,147.9758353,2.12,,,35.15241237,11.98287629,
918327,2720476,PR_20081008_020447_609_LC16,2008-10-08 02:04:47.609007+00:00,35.43267384,45,MALCB,0.747072715,0.451785948,-43.08380229,147.9758353,2.12,,,35.15241237,11.98287629,
918326,2720476,PR_20081008_020447_609_LC16,2008-10-08 02:04:47.609007+00:00,35.43267384,45,MALCB,0.599429302,0.376553709,-43.08380229,147.9758353,2.12,,,35.15241237,11.98287629,
918325,2720476,PR_20081008_020447_609_LC16,2008-10-08 02:04:47.609007+00:00,35.43267384,45,MALCB,0.919561153,0.368245453,-43.08380229,147.9758353,2.12,,,35.15241237,11.98287629,
918324,2720476,PR_20081008_020447_609_LC16,2008-10-08 02:04:47.609007+00:00,35.43267384,45,MALCB,0.493063072,0.122268743,-43.08380229,147.9758353,2.12,,,35.15241237,11.98287629,
918323,2720476,PR_20081008_020447_609_LC16,2008-10-08 02:04:47.609007+00:00,35.43267384,45,MALCB,0.325789629,0.080465786,-43.08380229,147.9758353,2.12,,,35.15241237,11.98287629,
918322,2720476,PR_20081008_020447_609_LC16,2008-10-08 02:04:47.609007+00:00,35.43267384,45,MALCB,0.792925317,0.052139212,-43.08380229,147.9758353,2.12,,,35.15241237,11.98287629,
918321,2720476,PR_20081008_020447_609_LC16,2008-10-08 02:04:47.609007+00:00,35.43267384,45,MALCB,0.134359933,0.572746304,-43.08380229,147.9758353,2.12,,,35.15241237,11.98287629,
918320,2720476,PR_20081008_020447_609_LC16,2008-10-08 02:04:47.609007+00:00,35.43267384,45,MALCB,0.133031585,0.045728117,-43.08380229,147.9758353,2.12,,,35.15241237,11.98287629,
918319,2720476,PR_20081008_020447_609_LC16,2008-10-08 02:04:47.609007+00:00,35.43267384,45,MALCB,0.755141198,0.163679184,-43.08380229,147.9758353,2.12,,,35.15241237,11.98287629,
918318,2720476,PR_20081008_020447_609_LC16,2008-10-08 02:04:47.609007+00:00,35.43267384,45,MALCB,0.100314868,0.368441711,-43.08380229,147.9758353,2.12,,,35.15241237,11.98287629,
918317,2720476,PR_20081008_020447_609_LC16,2008-10-08 02:04:47.609007+00:00,35.43267384,45,MALCB,0.342221785,0.237733874,-43.08380229,147.9758353,2.12,,,35.15241237,11.98287629,
918316,2720476,PR_20081008_020447_609_LC16,2008-10-08 02:04:47.609007+00:00,35.43267384,45,MALCB,0.10587425,0.312311919,-43.08380229,147.9758353,2.12,,,35.15241237,11.98287629,
918315,2720476,PR_20081008_020447_609_LC16,2008-10-08 02:04:47.609007+00:00,35.43267384,45,MALCB,0.060612024,0.178660212,-43.08380229,147.9758353,2.12,,,35.15241237,11.98287629,
918314,2720476,PR_20081008_020447_609_LC16,2008-10-08 02:04:47.609007+00:00,35.43267384,39,MA,0.131555643,0.924113568,-43.08380229,147.9758353,2.12,,,35.15241237,11.98287629,
918313,2720476,PR_20081008_020447_609_LC16,2008-10-08 02:04:47.609007+00:00,35.43267384,39,MA,0.89387976,0.999607484,-43.08380229,147.9758353,2.12,,,35.15241237,11.98287629,
918312,2720476,PR_20081008_020447_609_LC16,2008-10-08 02:04:47.609007+00:00,35.43267384,39,MA,0.478008462,0.963626848,-43.08380229,147.9758353,2.12,,,35.15241237,11.98287629,
918311,2720476,PR_20081008_020447_609_LC16,2008-10-08 02:04:47.609007+00:00,35.43267384,39,MA,0.904358949,0.987308648,-43.08380229,147.9758353,2.12,,,35.15241237,11.98287629,
918310,2720476,PR_20081008_020447_609_LC16,2008-10-08 02:04:47.609007+00:00,35.43267384,39,MA,0.922217849,0.736425487,-43.08380229,147.9758353,2.12,,,35.15241237,11.98287629,
918309,2720476,PR_20081008_020447_609_LC16,2008-10-08 02:04:47.609007+00:00,35.43267384,39,MA,0.099035718,0.809106372,-43.08380229,147.9758353,2.12,,,35.15241237,11.98287629,
918308,2720476,PR_20081008_020447_609_LC16,2008-10-08 02:04:47.609007+00:00,35.43267384,39,MA,0.032667519,0.734462907,-43.08380229,147.9758353,2.12,,,35.15241237,11.98287629,
918307,2720476,PR_20081008_020447_609_LC16,2008-10-08 02:04:47.609007+00:00,35.43267384,39,MA,0.731476926,0.600484103,-43.08380229,147.9758353,2.12,,,35.15241237,11.98287629,
918306,2720476,PR_20081008_020447_609_LC16,2008-10-08 02:04:47.609007+00:00,35.43267384,39,MA,0.957886451,0.993458066,-43.08380229,147.9758353,2.12,,,35.15241237,11.98287629,
918305,2720476,PR_20081008_020447_609_LC16,2008-10-08 02:04:47.609007+00:00,35.43267384,39,MA,0.978648037,0.124035065,-43.08380229,147.9758353,2.12,,,35.15241237,11.98287629,
918304,2720476,PR_20081008_020447_609_LC16,2008-10-08 02:04:47.609007+00:00,35.43267384,39,MA,0.867755584,0.09093288,-43.08380229,147.9758353,2.12,,,35.15241237,11.98287629,
918303,2720476,PR_20081008_020447_609_LC16,2008-10-08 02:04:47.609007+00:00,35.43267384,39,MA,0.020564794,0.44563653,-43.08380229,147.9758353,2.12,,,35.15241237,11.98287629,
918302,2720476,PR_20081008_020447_609_LC16,2008-10-08 02:04:47.609007+00:00,35.43267384,39,MA,0.08393191,0.670417375,-43.08380229,147.9758353,2.12,,,35.15241237,11.98287629,
918301,2720476,PR_20081008_020447_609_LC16,2008-10-08 02:04:47.609007+00:00,35.43267384,39,MA,0.734576405,0.66302499,-43.08380229,147.9758353,2.12,,,35.15241237,11.98287629,
918300,2720476,PR_20081008_020447_609_LC16,2008-10-08 02:04:47.609007+00:00,35.43267384,39,MA,0.882957788,0.948384142,-43.08380229,147.9758353,2.12,,,35.15241237,11.98287629,
918299,2720476,PR_20081008_020447_609_LC16,2008-10-08 02:04:47.609007+00:00,35.43267384,39,MA,0.906572862,0.054167212,-43.08380229,147.9758353,2.12,,,35.15241237,11.98287629,
918298,2720476,PR_20081008_020447_609_LC16,2008-10-08 02:04:47.609007+00:00,35.43267384,39,MA,0.079700876,0.655305508,-43.08380229,147.9758353,2.12,,,35.15241237,11.98287629,
918297,2720476,PR_20081008_020447_609_LC16,2008-10-08 02:04:47.609007+00:00,35.43267384,39,MA,0.92959756,0.149548607,-43.08380229,147.9758353,2.12,,,35.15241237,11.98287629,
918296,2720476,PR_20081008_020447_609_LC16,2008-10-08 02:04:47.609007+00:00,35.43267384,39,MA,0.734527207,0.676959309,-43.08380229,147.9758353,2.12,,,35.15241237,11.98287629,
918295,2720476,PR_20081008_020447_609_LC16,2008-10-08 02:04:47.609007+00:00,35.43267384,2,BIOTA,0.660926892,0.8004056,-43.08380229,147.9758353,2.12,,,35.15241237,11.98287629,
918294,2720476,PR_20081008_020447_609_LC16,2008-10-08 02:04:47.609007+00:00,35.43267384,2,BIOTA,0.968660828,0.755266257,-43.08380229,147.9758353,2.12,,,35.15241237,11.98287629,
918095,2719888,PR_20081008_020307_595_LC16,2008-10-08 02:03:07.595717+00:00,37.41517062,241,SUS,0.217947456,0.896375769,-43.0834807,147.9757478,2.243,,,35.14915789,11.98262281,
918094,2719888,PR_20081008_020307_595_LC16,2008-10-08 02:03:07.595717+00:00,37.41517062,241,SUS,0.911591066,0.687164726,-43.0834807,147.9757478,2.243,,,35.14915789,11.98262281,
918543,2721101,PR_20081008_020627_627_LC16,2008-10-08 02:06:27.627488+00:00,34.11306334,166,BRYS,0.764193644,0.467944524,-43.08413983,147.9759503,2.738,,,35.16323711,11.97462887,
918542,2721101,PR_20081008_020627_627_LC16,2008-10-08 02:06:27.627488+00:00,34.11306334,166,BRYS,0.396339663,0.944131885,-43.08413983,147.9759503,2.738,,,35.16323711,11.97462887,
918541,2721101,PR_20081008_020627_627_LC16,2008-10-08 02:06:27.627488+00:00,34.11306334,166,BRYS,0.459854374,0.853853199,-43.08413983,147.9759503,2.738,,,35.16323711,11.97462887,
918540,2721101,PR_20081008_020627_627_LC16,2008-10-08 02:06:27.627488+00:00,34.11306334,166,BRYS,0.128652957,0.936870339,-43.08413983,147.9759503,2.738,,,35.16323711,11.97462887,
918539,2721101,PR_20081008_020627_627_LC16,2008-10-08 02:06:27.627488+00:00,34.11306334,166,BRYS,0.258339073,0.676239696,-43.08413983,147.9759503,2.738,,,35.16323711,11.97462887,
918538,2721101,PR_20081008_020627_627_LC16,2008-10-08 02:06:27.627488+00:00,34.11306334,45,MALCB,0.487995671,0.28058354,-43.08413983,147.9759503,2.738,,,35.16323711,11.97462887,
918537,2721101,PR_20081008_020627_627_LC16,2008-10-08 02:06:27.627488+00:00,34.11306334,45,MALCB,0.672783627,0.2767238,-43.08413983,147.9759503,2.738,,,35.16323711,11.97462887,
918536,2721101,PR_20081008_020627_627_LC16,2008-10-08 02:06:27.627488+00:00,34.11306334,45,MALCB,0.16633868,0.782349863,-43.08413983,147.9759503,2.738,,,35.16323711,11.97462887,
918535,2721101,PR_20081008_020627_627_LC16,2008-10-08 02:06:27.627488+00:00,34.11306334,45,MALCB,0.634212339,0.853133586,-43.08413983,147.9759503,2.738,,,35.16323711,11.97462887,
918534,2721101,PR_20081008_020627_627_LC16,2008-10-08 02:06:27.627488+00:00,34.11306334,45,MALCB,0.255829971,0.206070915,-43.08413983,147.9759503,2.738,,,35.16323711,11.97462887,
918533,2721101,PR_20081008_020627_627_LC16,2008-10-08 02:06:27.627488+00:00,34.11306334,45,MALCB,0.599429302,0.397618736,-43.08413983,147.9759503,2.738,,,35.16323711,11.97462887,
918532,2721101,PR_20081008_020627_627_LC16,2008-10-08 02:06:27.627488+00:00,34.11306334,45,MALCB,0.775361606,0.058550307,-43.08413983,147.9759503,2.738,,,35.16323711,11.97462887,
918531,2721101,PR_20081008_020627_627_LC16,2008-10-08 02:06:27.627488+00:00,34.11306334,45,MALCB,0.588310538,0.15615596,-43.08413983,147.9759503,2.738,,,35.16323711,11.97462887,
918530,2721101,PR_20081008_020627_627_LC16,2008-10-08 02:06:27.627488+00:00,34.11306334,45,MALCB,0.533011906,0.289349732,-43.08413983,147.9759503,2.738,,,35.16323711,11.97462887,
918529,2721101,PR_20081008_020627_627_LC16,2008-10-08 02:06:27.627488+00:00,34.11306334,45,MALCB,0.875873266,0.033690959,-43.08413983,147.9759503,2.738,,,35.16323711,11.97462887,
918528,2721101,PR_20081008_020627_627_LC16,2008-10-08 02:06:27.627488+00:00,34.11306334,45,MALCB,0.450408344,0.661585765,-43.08413983,147.9759503,2.738,,,35.16323711,11.97462887,
918527,2721101,PR_20081008_020627_627_LC16,2008-10-08 02:06:27.627488+00:00,34.11306334,45,MALCB,0.208255436,0.927449954,-43.08413983,147.9759503,2.738,,,35.16323711,11.97462887,
918526,2721101,PR_20081008_020627_627_LC16,2008-10-08 02:06:27.627488+00:00,34.11306334,45,MALCB,0.601052839,0.998495355,-43.08413983,147.9759503,2.738,,,35.16323711,11.97462887,
918525,2721101,PR_20081008_020627_627_LC16,2008-10-08 02:06:27.627488+00:00,34.11306334,45,MALCB,0.373167372,0.331676043,-43.08413983,147.9759503,2.738,,,35.16323711,11.97462887,
918524,2721101,PR_20081008_020627_627_LC16,2008-10-08 02:06:27.627488+00:00,34.11306334,45,MALCB,0.052100758,0.283789088,-43.08413983,147.9759503,2.738,,,35.16323711,11.97462887,
918523,2721101,PR_20081008_020627_627_LC16,2008-10-08 02:06:27.627488+00:00,34.11306334,45,MALCB,0.041424776,0.526298574,-43.08413983,147.9759503,2.738,,,35.16323711,11.97462887,
918522,2721101,PR_20081008_020627_627_LC16,2008-10-08 02:06:27.627488+00:00,34.11306334,45,MALCB,0.367460396,0.586222687,-43.08413983,147.9759503,2.738,,,35.16323711,11.97462887,
918521,2721101,PR_20081008_020627_627_LC16,2008-10-08 02:06:27.627488+00:00,34.11306334,45,MALCB,0.433435009,0.47723407,-43.08413983,147.9759503,2.738,,,35.16323711,11.97462887,
918520,2721101,PR_20081008_020627_627_LC16,2008-10-08 02:06:27.627488+00:00,34.11306334,45,MALCB,0.712781659,0.323498626,-43.08413983,147.9759503,2.738,,,35.16323711,11.97462887,
918519,2721101,PR_20081008_020627_627_LC16,2008-10-08 02:06:27.627488+00:00,34.11306334,45,MALCB,0.631162058,0.071568756,-43.08413983,147.9759503,2.738,,,35.16323711,11.97462887,
918518,2721101,PR_20081008_020627_627_LC16,2008-10-08 02:06:27.627488+00:00,34.11306334,45,MALCB,0.93392699,0.091521654,-43.08413983,147.9759503,2.738,,,35.16323711,11.97462887,
918517,2721101,PR_20081008_020627_627_LC16,2008-10-08 02:06:27.627488+00:00,34.11306334,45,MALCB,0.734527207,0.180295695,-43.08413983,147.9759503,2.738,,,35.16323711,11.97462887,
918516,2721101,PR_20081008_020627_627_LC16,2008-10-08 02:06:27.627488+00:00,34.11306334,45,MALCB,0.234133622,0.959374591,-43.08413983,147.9759503,2.738,,,35.16323711,11.97462887,
918515,2721101,PR_20081008_020627_627_LC16,2008-10-08 02:06:27.627488+00:00,34.11306334,45,MALCB,0.458378432,0.437851629,-43.08413983,147.9759503,2.738,,,35.16323711,11.97462887,
918514,2721101,PR_20081008_020627_627_LC16,2008-10-08 02:06:27.627488+00:00,34.11306334,45,MALCB,0.328938306,0.073531336,-43.08413983,147.9759503,2.738,,,35.16323711,11.97462887,
918513,2721101,PR_20081008_020627_627_LC16,2008-10-08 02:06:27.627488+00:00,34.11306334,45,MALCB,0.24082456,0.989009551,-43.08413983,147.9759503,2.738,,,35.16323711,11.97462887,
918512,2721101,PR_20081008_020627_627_LC16,2008-10-08 02:06:27.627488+00:00,34.11306334,45,MALCB,0.665354718,0.871058485,-43.08413983,147.9759503,2.738,,,35.16323711,11.97462887,
918511,2721101,PR_20081008_020627_627_LC16,2008-10-08 02:06:27.627488+00:00,34.11306334,45,MALCB,0.569713667,0.164333377,-43.08413983,147.9759503,2.738,,,35.16323711,11.97462887,
918510,2721101,PR_20081008_020627_627_LC16,2008-10-08 02:06:27.627488+00:00,34.11306334,45,MALCB,0.674505559,0.262593223,-43.08413983,147.9759503,2.738,,,35.16323711,11.97462887,
918509,2721101,PR_20081008_020627_627_LC16,2008-10-08 02:06:27.627488+00:00,34.11306334,45,MALCB,0.878677556,0.945113175,-43.08413983,147.9759503,2.738,,,35.16323711,11.97462887,
917943,2719297,PR_20081008_020127_584_LC16,2008-10-08 02:01:27.584013+00:00,38.69519186,45,MALCB,0.145391287,0.153340279,-43.08316417,147.9756901,2.143,,,35.14707547,11.97389308,
917942,2719297,PR_20081008_020127_584_LC16,2008-10-08 02:01:27.584013+00:00,38.69519186,45,MALCB,0.530896261,0.883187915,-43.08316417,147.9756901,2.143,,,35.14707547,11.97389308,
917941,2719297,PR_20081008_020127_584_LC16,2008-10-08 02:01:27.584013+00:00,38.69519186,45,MALCB,0.272994561,0.073642401,-43.08316417,147.9756901,2.143,,,35.14707547,11.97389308,
917940,2719297,PR_20081008_020127_584_LC16,2008-10-08 02:01:27.584013+00:00,38.69519186,45,MALCB,0.499926496,0.90571689,-43.08316417,147.9756901,2.143,,,35.14707547,11.97389308,
917939,2719297,PR_20081008_020127_584_LC16,2008-10-08 02:01:27.584013+00:00,38.69519186,45,MALCB,0.257313667,0.039262925,-43.08316417,147.9756901,2.143,,,35.14707547,11.97389308,
917938,2719297,PR_20081008_020127_584_LC16,2008-10-08 02:01:27.584013+00:00,38.69519186,39,MA,0.911206939,0.189477797,-43.08316417,147.9756901,2.143,,,35.14707547,11.97389308,
917937,2719297,PR_20081008_020127_584_LC16,2008-10-08 02:01:27.584013+00:00,38.69519186,39,MA,0.10912922,0.597278291,-43.08316417,147.9756901,2.143,,,35.14707547,11.97389308,
917936,2719297,PR_20081008_020127_584_LC16,2008-10-08 02:01:27.584013+00:00,38.69519186,39,MA,0.04841476,0.01894778,-43.08316417,147.9756901,2.143,,,35.14707547,11.97389308,
917935,2719297,PR_20081008_020127_584_LC16,2008-10-08 02:01:27.584013+00:00,38.69519186,39,MA,0.366883912,0.108152103,-43.08316417,147.9756901,2.143,,,35.14707547,11.97389308,
917934,2719297,PR_20081008_020127_584_LC16,2008-10-08 02:01:27.584013+00:00,38.69519186,39,MA,0.042338413,0.229456961,-43.08316417,147.9756901,2.143,,,35.14707547,11.97389308,
917933,2719297,PR_20081008_020127_584_LC16,2008-10-08 02:01:27.584013+00:00,38.69519186,39,MA,0.636889303,0.645201198,-43.08316417,147.9756901,2.143,,,35.14707547,11.97389308,
917932,2719297,PR_20081008_020127_584_LC16,2008-10-08 02:01:27.584013+00:00,38.69519186,39,MA,0.882687313,0.535616617,-43.08316417,147.9756901,2.143,,,35.14707547,11.97389308,
917931,2719297,PR_20081008_020127_584_LC16,2008-10-08 02:01:27.584013+00:00,38.69519186,39,MA,0.951144215,0.375634848,-43.08316417,147.9756901,2.143,,,35.14707547,11.97389308,
917930,2719297,PR_20081008_020127_584_LC16,2008-10-08 02:01:27.584013+00:00,38.69519186,39,MA,0.49105699,0.592655294,-43.08316417,147.9756901,2.143,,,35.14707547,11.97389308,
917929,2719297,PR_20081008_020127_584_LC16,2008-10-08 02:01:27.584013+00:00,38.69519186,39,MA,0.259028765,0.454746712,-43.08316417,147.9756901,2.143,,,35.14707547,11.97389308,
917928,2719297,PR_20081008_020127_584_LC16,2008-10-08 02:01:27.584013+00:00,38.69519186,39,MA,0.309550644,0.470634197,-43.08316417,147.9756901,2.143,,,35.14707547,11.97389308,
917927,2719297,PR_20081008_020127_584_LC16,2008-10-08 02:01:27.584013+00:00,38.69519186,39,MA,0.103444896,0.872900117,-43.08316417,147.9756901,2.143,,,35.14707547,11.97389308,
917926,2719297,PR_20081008_020127_584_LC16,2008-10-08 02:01:27.584013+00:00,38.69519186,39,MA,0.965992062,0.891522334,-43.08316417,147.9756901,2.143,,,35.14707547,11.97389308,
917925,2719297,PR_20081008_020127_584_LC16,2008-10-08 02:01:27.584013+00:00,38.69519186,39,MA,0.802126721,0.576832921,-43.08316417,147.9756901,2.143,,,35.14707547,11.97389308,
917924,2719297,PR_20081008_020127_584_LC16,2008-10-08 02:01:27.584013+00:00,38.69519186,39,MA,0.560248934,0.641164214,-43.08316417,147.9756901,2.143,,,35.14707547,11.97389308,
917923,2719297,PR_20081008_020127_584_LC16,2008-10-08 02:01:27.584013+00:00,38.69519186,39,MA,0.266967217,0.311694231,-43.08316417,147.9756901,2.143,,,35.14707547,11.97389308,
917922,2719297,PR_20081008_020127_584_LC16,2008-10-08 02:01:27.584013+00:00,38.69519186,39,MA,0.672269319,0.730824326,-43.08316417,147.9756901,2.143,,,35.14707547,11.97389308,
917921,2719297,PR_20081008_020127_584_LC16,2008-10-08 02:01:27.584013+00:00,38.69519186,39,MA,0.155387857,0.515236359,-43.08316417,147.9756901,2.143,,,35.14707547,11.97389308,
917920,2719297,PR_20081008_020127_584_LC16,2008-10-08 02:01:27.584013+00:00,38.69519186,39,MA,0.238692605,0.368928246,-43.08316417,147.9756901,2.143,,,35.14707547,11.97389308,
917919,2719297,PR_20081008_020127_584_LC16,2008-10-08 02:01:27.584013+00:00,38.69519186,39,MA,0.803645808,0.684854799,-43.08316417,147.9756901,2.143,,,35.14707547,11.97389308,
917918,2719297,PR_20081008_020127_584_LC16,2008-10-08 02:01:27.584013+00:00,38.69519186,39,MA,0.164796393,0.866519078,-43.08316417,147.9756901,2.143,,,35.14707547,11.97389308,
917917,2719297,PR_20081008_020127_584_LC16,2008-10-08 02:01:27.584013+00:00,38.69519186,39,MA,0.392022345,0.368667795,-43.08316417,147.9756901,2.143,,,35.14707547,11.97389308,
917916,2719297,PR_20081008_020127_584_LC16,2008-10-08 02:01:27.584013+00:00,38.69519186,39,MA,0.751506836,0.565763771,-43.08316417,147.9756901,2.143,,,35.14707547,11.97389308,
917915,2719297,PR_20081008_020127_584_LC16,2008-10-08 02:01:27.584013+00:00,38.69519186,39,MA,0.799333562,0.450644615,-43.08316417,147.9756901,2.143,,,35.14707547,11.97389308,
917914,2719297,PR_20081008_020127_584_LC16,2008-10-08 02:01:27.584013+00:00,38.69519186,39,MA,0.474592052,0.629118375,-43.08316417,147.9756901,2.143,,,35.14707547,11.97389308,
917913,2719297,PR_20081008_020127_584_LC16,2008-10-08 02:01:27.584013+00:00,38.69519186,39,MA,0.817709609,0.879476494,-43.08316417,147.9756901,2.143,,,35.14707547,11.97389308,
917912,2719297,PR_20081008_020127_584_LC16,2008-10-08 02:01:27.584013+00:00,38.69519186,39,MA,0.913412064,0.576702696,-43.08316417,147.9756901,2.143,,,35.14707547,11.97389308,
917911,2719297,PR_20081008_020127_584_LC16,2008-10-08 02:01:27.584013+00:00,38.69519186,39,MA,0.286617337,0.52461258,-43.08316417,147.9756901,2.143,,,35.14707547,11.97389308,
917910,2719297,PR_20081008_020127_584_LC16,2008-10-08 02:01:27.584013+00:00,38.69519186,39,MA,0.199245357,0.313777836,-43.08316417,147.9756901,2.143,,,35.14707547,11.97389308,
917909,2719297,PR_20081008_020127_584_LC16,2008-10-08 02:01:27.584013+00:00,38.69519186,39,MA,0.671387269,0.569800755,-43.08316417,147.9756901,2.143,,,35.14707547,11.97389308,
917908,2719297,PR_20081008_020127_584_LC16,2008-10-08 02:01:27.584013+00:00,38.69519186,67,MAENR,0.551967462,0.708490689,-43.08316417,147.9756901,2.143,,,35.14707547,11.97389308,
917907,2719297,PR_20081008_020127_584_LC16,2008-10-08 02:01:27.584013+00:00,38.69519186,22,SPHC,0.683490959,0.453118896,-43.08316417,147.9756901,2.143,,,35.14707547,11.97389308,
917906,2719297,PR_20081008_020127_584_LC16,2008-10-08 02:01:27.584013+00:00,38.69519186,22,SPHC,0.329347773,0.359942701,-43.08316417,147.9756901,2.143,,,35.14707547,11.97389308,
917905,2719297,PR_20081008_020127_584_LC16,2008-10-08 02:01:27.584013+00:00,38.69519186,22,SPHC,0.628313814,0.606459174,-43.08316417,147.9756901,2.143,,,35.14707547,11.97389308,
917904,2719297,PR_20081008_020127_584_LC16,2008-10-08 02:01:27.584013+00:00,38.69519186,22,SPHC,0.702504043,0.443482224,-43.08316417,147.9756901,2.143,,,35.14707547,11.97389308,
917903,2719297,PR_20081008_020127_584_LC16,2008-10-08 02:01:27.584013+00:00,38.69519186,2,BIOTA,0.732836772,0.547467118,-43.08316417,147.9756901,2.143,,,35.14707547,11.97389308,
917902,2719297,PR_20081008_020127_584_LC16,2008-10-08 02:01:27.584013+00:00,38.69519186,2,BIOTA,0.937178419,0.853040761,-43.08316417,147.9756901,2.143,,,35.14707547,11.97389308,
917901,2719297,PR_20081008_020127_584_LC16,2008-10-08 02:01:27.584013+00:00,38.69519186,241,SUS,0.726809428,0.138494596,-43.08316417,147.9756901,2.143,,,35.14707547,11.97389308,
917900,2719297,PR_20081008_020127_584_LC16,2008-10-08 02:01:27.584013+00:00,38.69519186,241,SUS,0.620277356,0.757194947,-43.08316417,147.9756901,2.143,,,35.14707547,11.97389308,
917899,2719297,PR_20081008_020127_584_LC16,2008-10-08 02:01:27.584013+00:00,38.69519186,241,SUS,0.63051894,0.273863784,-43.08316417,147.9756901,2.143,,,35.14707547,11.97389308,
917898,2719297,PR_20081008_020127_584_LC16,2008-10-08 02:01:27.584013+00:00,38.69519186,241,SUS,0.818934679,0.012631853,-43.08316417,147.9756901,2.143,,,35.14707547,11.97389308,
917897,2719297,PR_20081008_020127_584_LC16,2008-10-08 02:01:27.584013+00:00,38.69519186,241,SUS,0.931543098,0.148912619,-43.08316417,147.9756901,2.143,,,35.14707547,11.97389308,
917896,2719297,PR_20081008_020127_584_LC16,2008-10-08 02:01:27.584013+00:00,38.69519186,241,SUS,0.736904004,0.375765074,-43.08316417,147.9756901,2.143,,,35.14707547,11.97389308,
917895,2719297,PR_20081008_020127_584_LC16,2008-10-08 02:01:27.584013+00:00,38.69519186,241,SUS,0.525407948,0.496418805,-43.08316417,147.9756901,2.143,,,35.14707547,11.97389308,
917894,2719297,PR_20081008_020127_584_LC16,2008-10-08 02:01:27.584013+00:00,38.69519186,241,SUS,0.813103347,0.281156401,-43.08316417,147.9756901,2.143,,,35.14707547,11.97389308,
918143,2719888,PR_20081008_020307_595_LC16,2008-10-08 02:03:07.595717+00:00,37.41517062,22,SPHC,0.502902686,0.360133455,-43.0834807,147.9757478,2.243,,,35.14915789,11.98262281,
918142,2719888,PR_20081008_020307_595_LC16,2008-10-08 02:03:07.595717+00:00,37.41517062,22,SPHC,0.527895307,0.329582625,-43.0834807,147.9757478,2.243,,,35.14915789,11.98262281,
918141,2719888,PR_20081008_020307_595_LC16,2008-10-08 02:03:07.595717+00:00,37.41517062,45,MALCB,0.521007577,0.643202931,-43.0834807,147.9757478,2.243,,,35.14915789,11.98262281,
918140,2719888,PR_20081008_020307_595_LC16,2008-10-08 02:03:07.595717+00:00,37.41517062,45,MALCB,0.208649021,0.35378778,-43.0834807,147.9757478,2.243,,,35.14915789,11.98262281,
918139,2719888,PR_20081008_020307_595_LC16,2008-10-08 02:03:07.595717+00:00,37.41517062,45,MALCB,0.648135393,0.025775219,-43.0834807,147.9757478,2.243,,,35.14915789,11.98262281,
918138,2719888,PR_20081008_020307_595_LC16,2008-10-08 02:03:07.595717+00:00,37.41517062,45,MALCB,0.03010922,0.991364647,-43.0834807,147.9757478,2.243,,,35.14915789,11.98262281,
918137,2719888,PR_20081008_020307_595_LC16,2008-10-08 02:03:07.595717+00:00,37.41517062,45,MALCB,0.633867952,0.747350517,-43.0834807,147.9757478,2.243,,,35.14915789,11.98262281,
918136,2719888,PR_20081008_020307_595_LC16,2008-10-08 02:03:07.595717+00:00,37.41517062,45,MALCB,0.438895995,0.808452178,-43.0834807,147.9757478,2.243,,,35.14915789,11.98262281,
918135,2719888,PR_20081008_020307_595_LC16,2008-10-08 02:03:07.595717+00:00,37.41517062,45,MALCB,0.605431467,0.732631166,-43.0834807,147.9757478,2.243,,,35.14915789,11.98262281,
918134,2719888,PR_20081008_020307_595_LC16,2008-10-08 02:03:07.595717+00:00,37.41517062,45,MALCB,0.205746335,0.337040429,-43.0834807,147.9757478,2.243,,,35.14915789,11.98262281,
918133,2719888,PR_20081008_020307_595_LC16,2008-10-08 02:03:07.595717+00:00,37.41517062,45,MALCB,0.239053429,0.861507262,-43.0834807,147.9757478,2.243,,,35.14915789,11.98262281,
918132,2719888,PR_20081008_020307_595_LC16,2008-10-08 02:03:07.595717+00:00,37.41517062,45,MALCB,0.406179278,0.243556195,-43.0834807,147.9757478,2.243,,,35.14915789,11.98262281,
918131,2719888,PR_20081008_020307_595_LC16,2008-10-08 02:03:07.595717+00:00,37.41517062,45,MALCB,0.067450556,0.997448646,-43.0834807,147.9757478,2.243,,,35.14915789,11.98262281,
918130,2719888,PR_20081008_020307_595_LC16,2008-10-08 02:03:07.595717+00:00,37.41517062,16,SPMSI,0.830807832,0.499214968,-43.0834807,147.9757478,2.243,,,35.14915789,11.98262281,
918129,2719888,PR_20081008_020307_595_LC16,2008-10-08 02:03:07.595717+00:00,37.41517062,16,SPMSI,0.052740333,0.449169174,-43.0834807,147.9757478,2.243,,,35.14915789,11.98262281,
918128,2719888,PR_20081008_020307_595_LC16,2008-10-08 02:03:07.595717+00:00,37.41517062,16,SPMSI,0.042753124,0.416721183,-43.0834807,147.9757478,2.243,,,35.14915789,11.98262281,
918127,2719888,PR_20081008_020307_595_LC16,2008-10-08 02:03:07.595717+00:00,37.41517062,26,SPEL,0.619354521,0.352413974,-43.0834807,147.9757478,2.243,,,35.14915789,11.98262281,
918126,2719888,PR_20081008_020307_595_LC16,2008-10-08 02:03:07.595717+00:00,37.41517062,39,MA,0.164075568,0.556587727,-43.0834807,147.9757478,2.243,,,35.14915789,11.98262281,
918125,2719888,PR_20081008_020307_595_LC16,2008-10-08 02:03:07.595717+00:00,37.41517062,39,MA,0.653547181,0.947272014,-43.0834807,147.9757478,2.243,,,35.14915789,11.98262281,
918124,2719888,PR_20081008_020307_595_LC16,2008-10-08 02:03:07.595717+00:00,37.41517062,39,MA,0.684640362,0.502289677,-43.0834807,147.9757478,2.243,,,35.14915789,11.98262281,
918123,2719888,PR_20081008_020307_595_LC16,2008-10-08 02:03:07.595717+00:00,37.41517062,39,MA,0.92423497,0.674146278,-43.0834807,147.9757478,2.243,,,35.14915789,11.98262281,
918122,2719888,PR_20081008_020307_595_LC16,2008-10-08 02:03:07.595717+00:00,37.41517062,39,MA,0.66658467,0.278163025,-43.0834807,147.9757478,2.243,,,35.14915789,11.98262281,
918121,2719888,PR_20081008_020307_595_LC16,2008-10-08 02:03:07.595717+00:00,37.41517062,39,MA,0.494194628,0.622268743,-43.0834807,147.9757478,2.243,,,35.14915789,11.98262281,
918120,2719888,PR_20081008_020307_595_LC16,2008-10-08 02:03:07.595717+00:00,37.41517062,39,MA,0.440765522,0.882179772,-43.0834807,147.9757478,2.243,,,35.14915789,11.98262281,
918119,2719888,PR_20081008_020307_595_LC16,2008-10-08 02:03:07.595717+00:00,37.41517062,39,MA,0.879021942,0.830694753,-43.0834807,147.9757478,2.243,,,35.14915789,11.98262281,
918118,2719888,PR_20081008_020307_595_LC16,2008-10-08 02:03:07.595717+00:00,37.41517062,39,MA,0.906474466,0.078241528,-43.0834807,147.9757478,2.243,,,35.14915789,11.98262281,
918117,2719888,PR_20081008_020307_595_LC16,2008-10-08 02:03:07.595717+00:00,37.41517062,39,MA,0.257453508,0.054886825,-43.0834807,147.9757478,2.243,,,35.14915789,11.98262281,
918116,2719888,PR_20081008_020307_595_LC16,2008-10-08 02:03:07.595717+00:00,37.41517062,39,MA,0.476040539,0.597998168,-43.0834807,147.9757478,2.243,,,35.14915789,11.98262281,
918115,2719888,PR_20081008_020307_595_LC16,2008-10-08 02:03:07.595717+00:00,37.41517062,39,MA,0.81098101,0.397553317,-43.0834807,147.9757478,2.243,,,35.14915789,11.98262281,
918114,2719888,PR_20081008_020307_595_LC16,2008-10-08 02:03:07.595717+00:00,37.41517062,39,MA,0.474072616,0.577129399,-43.0834807,147.9757478,2.243,,,35.14915789,11.98262281,
918113,2719888,PR_20081008_020307_595_LC16,2008-10-08 02:03:07.595717+00:00,37.41517062,39,MA,0.729754994,0.401085961,-43.0834807,147.9757478,2.243,,,35.14915789,11.98262281,
918112,2719888,PR_20081008_020307_595_LC16,2008-10-08 02:03:07.595717+00:00,37.41517062,39,MA,0.534340254,0.962318461,-43.0834807,147.9757478,2.243,,,35.14915789,11.98262281,
918111,2719888,PR_20081008_020307_595_LC16,2008-10-08 02:03:07.595717+00:00,37.41517062,39,MA,0.941749483,0.184613372,-43.0834807,147.9757478,2.243,,,35.14915789,11.98262281,
918110,2719888,PR_20081008_020307_595_LC16,2008-10-08 02:03:07.595717+00:00,37.41517062,39,MA,0.689855358,0.58197043,-43.0834807,147.9757478,2.243,,,35.14915789,11.98262281,
918109,2719888,PR_20081008_020307_595_LC16,2008-10-08 02:03:07.595717+00:00,37.41517062,39,MA,0.440125947,0.474617297,-43.0834807,147.9757478,2.243,,,35.14915789,11.98262281,
918108,2719888,PR_20081008_020307_595_LC16,2008-10-08 02:03:07.595717+00:00,37.41517062,39,MA,0.92576011,0.899646736,-43.0834807,147.9757478,2.243,,,35.14915789,11.98262281,
918107,2719888,PR_20081008_020307_595_LC16,2008-10-08 02:03:07.595717+00:00,37.41517062,39,MA,0.805224835,0.49411226,-43.0834807,147.9757478,2.243,,,35.14915789,11.98262281,
918106,2719888,PR_20081008_020307_595_LC16,2008-10-08 02:03:07.595717+00:00,37.41517062,39,MA,0.187985831,0.653866283,-43.0834807,147.9757478,2.243,,,35.14915789,11.98262281,
918105,2719888,PR_20081008_020307_595_LC16,2008-10-08 02:03:07.595717+00:00,37.41517062,39,MA,0.301928564,0.713659558,-43.0834807,147.9757478,2.243,,,35.14915789,11.98262281,
918104,2719888,PR_20081008_020307_595_LC16,2008-10-08 02:03:07.595717+00:00,37.41517062,2,BIOTA,0.408442389,0.568951982,-43.0834807,147.9757478,2.243,,,35.14915789,11.98262281,
918103,2719888,PR_20081008_020307_595_LC16,2008-10-08 02:03:07.595717+00:00,37.41517062,2,BIOTA,0.577388566,0.090605783,-43.0834807,147.9757478,2.243,,,35.14915789,11.98262281,
918102,2719888,PR_20081008_020307_595_LC16,2008-10-08 02:03:07.595717+00:00,37.41517062,2,BIOTA,0.290957394,0.449300013,-43.0834807,147.9757478,2.243,,,35.14915789,11.98262281,
918101,2719888,PR_20081008_020307_595_LC16,2008-10-08 02:03:07.595717+00:00,37.41517062,2,BIOTA,0.759716619,0.241331938,-43.0834807,147.9757478,2.243,,,35.14915789,11.98262281,
918100,2719888,PR_20081008_020307_595_LC16,2008-10-08 02:03:07.595717+00:00,37.41517062,2,BIOTA,0.912722621,0.203257883,-43.0834807,147.9757478,2.243,,,35.14915789,11.98262281,
918099,2719888,PR_20081008_020307_595_LC16,2008-10-08 02:03:07.595717+00:00,37.41517062,2,BIOTA,0.575273049,0.42980505,-43.0834807,147.9757478,2.243,,,35.14915789,11.98262281,
918098,2719888,PR_20081008_020307_595_LC16,2008-10-08 02:03:07.595717+00:00,37.41517062,241,SUS,0.902489422,0.826900432,-43.0834807,147.9757478,2.243,,,35.14915789,11.98262281,
918097,2719888,PR_20081008_020307_595_LC16,2008-10-08 02:03:07.595717+00:00,37.41517062,241,SUS,0.042211945,0.155501766,-43.0834807,147.9757478,2.243,,,35.14915789,11.98262281,
918096,2719888,PR_20081008_020307_595_LC16,2008-10-08 02:03:07.595717+00:00,37.41517062,241,SUS,0.189609367,0.09289546,-43.0834807,147.9757478,2.243,,,35.14915789,11.98262281,
917743,2718685,PR_20081008_015947_568_LC16,2008-10-08 01:59:47.568234+00:00,40.68461107,21,SPHT,0.698652291,0.994398854,-43.08285908,147.9756284,1.647,,,35.15650943,11.96886164,
917742,2718685,PR_20081008_015947_568_LC16,2008-10-08 01:59:47.568234+00:00,40.68461107,45,MALCB,0.828571429,0.510225348,-43.08285908,147.9756284,1.647,,,35.15650943,11.96886164,
917741,2718685,PR_20081008_015947_568_LC16,2008-10-08 01:59:47.568234+00:00,40.68461107,45,MALCB,0.8980642,0.422821415,-43.08285908,147.9756284,1.647,,,35.15650943,11.96886164,
917740,2718685,PR_20081008_015947_568_LC16,2008-10-08 01:59:47.568234+00:00,40.68461107,26,SPEL,0.335898064,0.090009118,-43.08285908,147.9756284,1.647,,,35.15650943,11.96886164,
917739,2718685,PR_20081008_015947_568_LC16,2008-10-08 01:59:47.568234+00:00,40.68461107,39,MA,0.840088214,0.409469845,-43.08285908,147.9756284,1.647,,,35.15650943,11.96886164,
917738,2718685,PR_20081008_015947_568_LC16,2008-10-08 01:59:47.568234+00:00,40.68461107,39,MA,0.398235727,0.974208675,-43.08285908,147.9756284,1.647,,,35.15650943,11.96886164,
917737,2718685,PR_20081008_015947_568_LC16,2008-10-08 01:59:47.568234+00:00,40.68461107,39,MA,0.801078167,0.916503843,-43.08285908,147.9756284,1.647,,,35.15650943,11.96886164,
917736,2718685,PR_20081008_015947_568_LC16,2008-10-08 01:59:47.568234+00:00,40.68461107,39,MA,0.71232541,0.808323564,-43.08285908,147.9756284,1.647,,,35.15650943,11.96886164,
917735,2718685,PR_20081008_015947_568_LC16,2008-10-08 01:59:47.568234+00:00,40.68461107,39,MA,0.450624847,0.94353263,-43.08285908,147.9756284,1.647,,,35.15650943,11.96886164,
917734,2718685,PR_20081008_015947_568_LC16,2008-10-08 01:59:47.568234+00:00,40.68461107,2,BIOTA,0.053859348,0.091246581,-43.08285908,147.9756284,1.647,,,35.15650943,11.96886164,
917733,2718685,PR_20081008_015947_568_LC16,2008-10-08 01:59:47.568234+00:00,40.68461107,241,SUS,0.384072531,0.658785984,-43.08285908,147.9756284,1.647,,,35.15650943,11.96886164,
917732,2718685,PR_20081008_015947_568_LC16,2008-10-08 01:59:47.568234+00:00,40.68461107,241,SUS,0.40612595,0.222222222,-43.08285908,147.9756284,1.647,,,35.15650943,11.96886164,
917731,2718685,PR_20081008_015947_568_LC16,2008-10-08 01:59:47.568234+00:00,40.68461107,241,SUS,0.427542269,0.118340498,-43.08285908,147.9756284,1.647,,,35.15650943,11.96886164,
917730,2718685,PR_20081008_015947_568_LC16,2008-10-08 01:59:47.568234+00:00,40.68461107,241,SUS,0.455770644,0.335352351,-43.08285908,147.9756284,1.647,,,35.15650943,11.96886164,
917729,2718685,PR_20081008_015947_568_LC16,2008-10-08 01:59:47.568234+00:00,40.68461107,241,SUS,0.532173487,0.077504233,-43.08285908,147.9756284,1.647,,,35.15650943,11.96886164,
917728,2718685,PR_20081008_015947_568_LC16,2008-10-08 01:59:47.568234+00:00,40.68461107,241,SUS,0.094535653,0.77575876,-43.08285908,147.9756284,1.647,,,35.15650943,11.96886164,
917727,2718685,PR_20081008_015947_568_LC16,2008-10-08 01:59:47.568234+00:00,40.68461107,241,SUS,0.204753737,0.315031914,-43.08285908,147.9756284,1.647,,,35.15650943,11.96886164,
917726,2718685,PR_20081008_015947_568_LC16,2008-10-08 01:59:47.568234+00:00,40.68461107,241,SUS,0.942465082,0.075224697,-43.08285908,147.9756284,1.647,,,35.15650943,11.96886164,
917725,2718685,PR_20081008_015947_568_LC16,2008-10-08 01:59:47.568234+00:00,40.68461107,241,SUS,0.163195295,0.671551387,-43.08285908,147.9756284,1.647,,,35.15650943,11.96886164,
917724,2718685,PR_20081008_015947_568_LC16,2008-10-08 01:59:47.568234+00:00,40.68461107,241,SUS,0.698113208,0.566236811,-43.08285908,147.9756284,1.647,,,35.15650943,11.96886164,
917723,2718685,PR_20081008_015947_568_LC16,2008-10-08 01:59:47.568234+00:00,40.68461107,241,SUS,0.201470228,0.567083496,-43.08285908,147.9756284,1.647,,,35.15650943,11.96886164,
917722,2718685,PR_20081008_015947_568_LC16,2008-10-08 01:59:47.568234+00:00,40.68461107,241,SUS,0.457730948,0.494919891,-43.08285908,147.9756284,1.647,,,35.15650943,11.96886164,
917721,2718685,PR_20081008_015947_568_LC16,2008-10-08 01:59:47.568234+00:00,40.68461107,241,SUS,0.764763538,0.16106552,-43.08285908,147.9756284,1.647,,,35.15650943,11.96886164,
917720,2718685,PR_20081008_015947_568_LC16,2008-10-08 01:59:47.568234+00:00,40.68461107,241,SUS,0.720754717,0.409209327,-43.08285908,147.9756284,1.647,,,35.15650943,11.96886164,
917719,2718685,PR_20081008_015947_568_LC16,2008-10-08 01:59:47.568234+00:00,40.68461107,241,SUS,0.924136241,0.599257522,-43.08285908,147.9756284,1.647,,,35.15650943,11.96886164,
917718,2718685,PR_20081008_015947_568_LC16,2008-10-08 01:59:47.568234+00:00,40.68461107,241,SUS,0.412987013,0.684512179,-43.08285908,147.9756284,1.647,,,35.15650943,11.96886164,
917717,2718685,PR_20081008_015947_568_LC16,2008-10-08 01:59:47.568234+00:00,40.68461107,241,SUS,0.547120804,0.109026964,-43.08285908,147.9756284,1.647,,,35.15650943,11.96886164,
917716,2718685,PR_20081008_015947_568_LC16,2008-10-08 01:59:47.568234+00:00,40.68461107,241,SUS,0.406714041,0.08968347,-43.08285908,147.9756284,1.647,,,35.15650943,11.96886164,
917715,2718685,PR_20081008_015947_568_LC16,2008-10-08 01:59:47.568234+00:00,40.68461107,241,SUS,0.679000245,0.091897877,-43.08285908,147.9756284,1.647,,,35.15650943,11.96886164,
917714,2718685,PR_20081008_015947_568_LC16,2008-10-08 01:59:47.568234+00:00,40.68461107,241,SUS,0.478559177,0.093982024,-43.08285908,147.9756284,1.647,,,35.15650943,11.96886164,
917713,2718685,PR_20081008_015947_568_LC16,2008-10-08 01:59:47.568234+00:00,40.68461107,241,SUS,0.063023769,0.59307021,-43.08285908,147.9756284,1.647,,,35.15650943,11.96886164,
917712,2718685,PR_20081008_015947_568_LC16,2008-10-08 01:59:47.568234+00:00,40.68461107,241,SUS,0.638666993,0.5,-43.08285908,147.9756284,1.647,,,35.15650943,11.96886164,
917711,2718685,PR_20081008_015947_568_LC16,2008-10-08 01:59:47.568234+00:00,40.68461107,241,SUS,0.346091644,0.472059398,-43.08285908,147.9756284,1.647,,,35.15650943,11.96886164,
917710,2718685,PR_20081008_015947_568_LC16,2008-10-08 01:59:47.568234+00:00,40.68461107,241,SUS,0.013428081,0.50338674,-43.08285908,147.9756284,1.647,,,35.15650943,11.96886164,
917709,2718685,PR_20081008_015947_568_LC16,2008-10-08 01:59:47.568234+00:00,40.68461107,241,SUS,0.40142122,0.246971473,-43.08285908,147.9756284,1.647,,,35.15650943,11.96886164,
917708,2718685,PR_20081008_015947_568_LC16,2008-10-08 01:59:47.568234+00:00,40.68461107,241,SUS,0.780887037,0.076071382,-43.08285908,147.9756284,1.647,,,35.15650943,11.96886164,
